[{"id":"hotosm-ways_poly-605895937","name":"002","type":"attraction","address":"景點 / 文化設施","lat":22.448553,"lng":114.16352,"aliases":[],"source":"HOTOSM Hong Kong OSM export 2026-05-05","confidence":78},{"id":"hotosm-nodes-12602864001","name":"10 Chancery Lane Art Gallery","type":"attraction","address":"景點 / 文化設施","lat":22.280733,"lng":114.153476,"aliases":[],"source":"HOTOSM Hong Kong OSM export 2026-05-05","confidence":78},{"id":"hotosm-ways_poly-605895934","name":"112","type":"attraction","address":"景點 / 文化設施","lat":22.44885,"lng":114.163213,"aliases":[],"source":"HOTOSM Hong Kong OSM export 2026-05-05","confidence":78},{"id":"hotosm-ways_poly-184553178","name":"1881","type":"attraction","address":"2A 廣東道 Canton Road","lat":22.295257,"lng":114.16995,"aliases":["1881 Heritage"],"source":"HOTOSM Hong Kong OSM export 2026-05-05","confidence":78},{"id":"hotosm-ways_poly-605895939","name":"223","type":"attraction","address":"景點 / 文化設施","lat":22.448362,"lng":114.163638,"aliases":[],"source":"HOTOSM Hong Kong OSM export 2026-05-05","confidence":78},{"id":"hotosm-ways_poly-605895936","name":"229","type":"attraction","address":"景點 / 文化設施","lat":22.448686,"lng":114.163356,"aliases":[],"source":"HOTOSM Hong Kong OSM export 2026-05-05","confidence":78},{"id":"hotosm-ways_poly-605895938","name":"276","type":"attraction","address":"景點 / 文化設施","lat":22.448528,"lng":114.16349,"aliases":[],"source":"HOTOSM Hong Kong OSM export 2026-05-05","confidence":78},{"id":"hotosm-ways_poly-605895935","name":"302","type":"attraction","address":"景點 / 文化設施","lat":22.448706,"lng":114.163387,"aliases":[],"source":"HOTOSM Hong Kong OSM export 2026-05-05","confidence":78},{"id":"hotosm-ways_poly-1217784457","name":"313","type":"attraction","address":"景點 / 文化設施","lat":22.44822,"lng":114.163762,"aliases":[],"source":"HOTOSM Hong Kong OSM export 2026-05-05","confidence":78},{"id":"hotosm-nodes-3311146602","name":"7天酒店","type":"attraction","address":"景點 / 文化設施","lat":22.550058,"lng":114.088369,"aliases":["7 Days Inn"],"source":"HOTOSM Hong Kong OSM export 2026-05-05","confidence":78},{"id":"hotosm-nodes-5301835321","name":"8 Days Boutiques Hotel","type":"attraction","address":"景點 / 文化設施","lat":22.321906,"lng":114.168665,"aliases":[],"source":"HOTOSM Hong Kong OSM export 2026-05-05","confidence":78},{"id":"hotosm-ways_poly-126052285","name":"8度海逸酒店","type":"attraction","address":"景點 / 文化設施","lat":22.322929,"lng":114.190694,"aliases":["8度海逸酒店 Harbour Plaza 8 Degrees","Harbour Plaza 8 Degrees"],"source":"HOTOSM Hong Kong OSM export 2026-05-05","confidence":78},{"id":"hotosm-nodes-2560848705","name":"9 Boutique Hotel","type":"attraction","address":"70 Lee Garden Road","lat":22.278238,"lng":114.184021,"aliases":[],"source":"HOTOSM Hong Kong OSM export 2026-05-05","confidence":78},{"id":"hotosm-ways_poly-540115815","name":"99 Bonham","type":"attraction","address":"99 文咸東街 Bonham Strand","lat":22.286114,"lng":114.151009,"aliases":[],"source":"HOTOSM Hong Kong OSM export 2026-05-05","confidence":78},{"id":"hotosm-nodes-6313846196","name":"一串紅","type":"attraction","address":"景點 / 文化設施","lat":22.4508,"lng":114.179896,"aliases":[],"source":"HOTOSM Hong Kong OSM export 2026-05-05","confidence":78},{"id":"hotosm-nodes-13310163649","name":"一步一腳印","type":"attraction","address":"景點 / 文化設施","lat":22.327053,"lng":114.195922,"aliases":[],"source":"HOTOSM Hong Kong OSM export 2026-05-05","confidence":78},{"id":"hotosm-ways_poly-377088645","name":"一區燒烤場","type":"attraction","address":"景點 / 文化設施","lat":22.427108,"lng":114.235163,"aliases":["一區燒烤場 BBQ Zone 1","BBQ Zone 1"],"source":"HOTOSM Hong Kong OSM export 2026-05-05","confidence":78},{"id":"hotosm-nodes-12198479901","name":"一新美術館","type":"attraction","address":"景點 / 文化設施","lat":22.287628,"lng":114.141786,"aliases":["一新美術館 Sun Museum","Sun Museum"],"source":"HOTOSM Hong Kong OSM export 2026-05-05","confidence":78},{"id":"hotosm-nodes-6332109397","name":"七星瓢蟲","type":"attraction","address":"景點 / 文化設施","lat":22.450836,"lng":114.17888,"aliases":[],"source":"HOTOSM Hong Kong OSM export 2026-05-05","confidence":78},{"id":"hotosm-nodes-12772122792","name":"九担租楓香林","type":"attraction","address":"景點 / 文化設施","lat":22.505104,"lng":114.244451,"aliases":[],"source":"HOTOSM Hong Kong OSM export 2026-05-05","confidence":78},{"id":"hotosm-nodes-11553208511","name":"九段 Route 9","type":"attraction","address":"景點 / 文化設施","lat":22.379921,"lng":114.012244,"aliases":[],"source":"HOTOSM Hong Kong OSM export 2026-05-05","confidence":78},{"id":"hotosm-nodes-11675316769","name":"九管石塔","type":"attraction","address":"景點 / 文化設施","lat":22.382861,"lng":113.9963,"aliases":[],"source":"HOTOSM Hong Kong OSM export 2026-05-05","confidence":78},{"id":"hotosm-ways_poly-184574181","name":"九龍公眾碼頭","type":"attraction","address":"景點 / 文化設施","lat":22.293197,"lng":114.170088,"aliases":["九龍公眾碼頭 Kowloon Public Pier","Kowloon Public Pier"],"source":"HOTOSM Hong Kong OSM export 2026-05-05","confidence":78},{"id":"hotosm-ways_poly-925425899","name":"九龍水塘燒烤區","type":"attraction","address":"景點 / 文化設施","lat":22.353397,"lng":114.155857,"aliases":["九龍水塘燒烤區 Kowloon Reservoir Barbecue Area","Kowloon Reservoir Barbecue Area"],"source":"HOTOSM Hong Kong OSM export 2026-05-05","confidence":78},{"id":"hotosm-nodes-12865525782","name":"九龍坑山 Cloudy Hill (Kau Lung Hang Shan) 衞奕信徑 Wilson Path","type":"attraction","address":"景點 / 文化設施","lat":22.456716,"lng":114.158762,"aliases":[],"source":"HOTOSM Hong Kong OSM export 2026-05-05","confidence":78},{"id":"hotosm-ways_poly-299215771","name":"九龍東如心酒店","type":"attraction","address":"38 創業街 Chong Yip Street","lat":22.314217,"lng":114.218992,"aliases":["九龍東如心酒店 Nina Hotel Kowloon East","Nina Hotel Kowloon East"],"source":"HOTOSM Hong Kong OSM export 2026-05-05","confidence":78},{"id":"hotosm-ways_poly-1214217580","name":"九龍皇悅酒店","type":"attraction","address":"62 金巴利道 Kimberley Road","lat":22.300871,"lng":114.175078,"aliases":["九龍皇悅酒店 The Empire Hotel Kowloon","The Empire Hotel Kowloon"],"source":"HOTOSM Hong Kong OSM export 2026-05-05","confidence":78},{"id":"hotosm-ways_poly-236062121","name":"九龍香格里拉大酒店","type":"attraction","address":"64 麼地道 Mody Road","lat":22.297029,"lng":114.177023,"aliases":["九龍香格里拉大酒店 Kowloon Shangri-La Hotel","Kowloon Shangri-La Hotel"],"source":"HOTOSM Hong Kong OSM export 2026-05-05","confidence":78},{"id":"hotosm-ways_poly-151396617","name":"九龍海逸君綽酒店","type":"attraction","address":"20 德豐街 Tak Fung Street","lat":22.302651,"lng":114.192358,"aliases":["九龍海逸君綽酒店 Harbour Grand Kowloon","Harbour Grand Kowloon"],"source":"HOTOSM Hong Kong OSM export 2026-05-05","confidence":78},{"id":"hotosm-ways_poly-1170462813","name":"九龍酒店","type":"attraction","address":"19-21 彌敦道 Nathan Road","lat":22.295785,"lng":114.171727,"aliases":["九龍酒店 The Kowloon Hotel","The Kowloon Hotel"],"source":"HOTOSM Hong Kong OSM export 2026-05-05","confidence":78},{"id":"hotosm-ways_poly-888280089","name":"九龍維景酒店","type":"attraction","address":"75 窩打老道 Waterloo Road","lat":22.319506,"lng":114.175781,"aliases":["九龍維景酒店 Metropark Hotel Kowloon","Metropark Hotel Kowloon"],"source":"HOTOSM Hong Kong OSM export 2026-05-05","confidence":78},{"id":"hotosm-nodes-11986409567","name":"二十四孝瓷畫","type":"attraction","address":"景點 / 文化設施","lat":22.490583,"lng":114.138567,"aliases":[],"source":"HOTOSM Hong Kong OSM export 2026-05-05","confidence":78},{"id":"hotosm-ways_poly-377088654","name":"二區燒烤場","type":"attraction","address":"景點 / 文化設施","lat":22.427715,"lng":114.236689,"aliases":["二區燒烤場 BBQ Zone 2","BBQ Zone 2"],"source":"HOTOSM Hong Kong OSM export 2026-05-05","confidence":78},{"id":"hotosm-nodes-5018190229","name":"二轉鎮流碑","type":"attraction","address":"景點 / 文化設施","lat":22.341664,"lng":114.054495,"aliases":["Kap Shui Mun Obelisk (Yi Chuen)"],"source":"HOTOSM Hong Kong OSM export 2026-05-05","confidence":78},{"id":"hotosm-nodes-12067850257","name":"人頭石","type":"attraction","address":"景點 / 文化設施","lat":22.204465,"lng":114.039279,"aliases":[],"source":"HOTOSM Hong Kong OSM export 2026-05-05","confidence":78},{"id":"hotosm-nodes-11989437185","name":"八十七神仙圖","type":"attraction","address":"景點 / 文化設施","lat":22.490273,"lng":114.137972,"aliases":["八十七神仙圖 Mural of 87 Immortals","Mural of 87 Immortals"],"source":"HOTOSM Hong Kong OSM export 2026-05-05","confidence":78},{"id":"hotosm-ways_poly-831769388","name":"八鄉牌樓","type":"attraction","address":"景點 / 文化設施","lat":22.440042,"lng":114.070246,"aliases":[],"source":"HOTOSM Hong Kong OSM export 2026-05-05","confidence":78},{"id":"hotosm-nodes-11986508817","name":"十二生肖石刻","type":"attraction","address":"景點 / 文化設施","lat":22.49021,"lng":114.138386,"aliases":["十二生肖石刻 Sculpture of Chinese Zodiac","Sculpture of Chinese Zodiac"],"source":"HOTOSM Hong Kong OSM export 2026-05-05","confidence":78},{"id":"hotosm-nodes-11980029924","name":"十二生肖銅首","type":"attraction","address":"景點 / 文化設施","lat":22.490619,"lng":114.138635,"aliases":[],"source":"HOTOSM Hong Kong OSM export 2026-05-05","confidence":78},{"id":"hotosm-nodes-3278509857","name":"十字溝","type":"attraction","address":"景點 / 文化設施","lat":22.356436,"lng":114.375082,"aliases":[],"source":"HOTOSM Hong Kong OSM export 2026-05-05","confidence":78},{"id":"hotosm-nodes-1968904270","name":"十塱營地","type":"attraction","address":"景點 / 文化設施","lat":22.237571,"lng":113.988228,"aliases":["十塱營地 Shap Long Campsite","Shap Long Campsite"],"source":"HOTOSM Hong Kong OSM export 2026-05-05","confidence":78},{"id":"hotosm-nodes-11648651635","name":"三丰艺术馆","type":"attraction","address":"紫荆道创想科技大厦一楼","lat":22.505464,"lng":114.054946,"aliases":["sanfeng museum of art"],"source":"HOTOSM Hong Kong OSM export 2026-05-05","confidence":78},{"id":"hotosm-nodes-6187285685","name":"三角石","type":"attraction","address":"景點 / 文化設施","lat":22.2752,"lng":113.917675,"aliases":["triangle rock"],"source":"HOTOSM Hong Kong OSM export 2026-05-05","confidence":78},{"id":"hotosm-ways_poly-377112863","name":"三區燒烤場","type":"attraction","address":"景點 / 文化設施","lat":22.429834,"lng":114.239486,"aliases":["三區燒烤場 BBQ Zone 3","BBQ Zone 3"],"source":"HOTOSM Hong Kong OSM export 2026-05-05","confidence":78},{"id":"hotosm-ways_poly-29703210","name":"三棟屋博物館","type":"attraction","address":"景點 / 文化設施","lat":22.372035,"lng":114.120226,"aliases":["三棟屋博物館 Sam Tung Uk Museum","Sam Tung Uk Museum"],"source":"HOTOSM Hong Kong OSM export 2026-05-05","confidence":78},{"id":"hotosm-ways_poly-249661520","name":"三椏涌營地","type":"attraction","address":"景點 / 文化設施","lat":22.508458,"lng":114.271653,"aliases":["三椏涌營地 Sam A Chung Campsite","Sam A Chung Campsite"],"source":"HOTOSM Hong Kong OSM export 2026-05-05","confidence":78},{"id":"hotosm-ways_poly-223012109","name":"三聖墟海鮮街","type":"attraction","address":"景點 / 文化設施","lat":22.379951,"lng":113.97833,"aliases":["三聖墟海鮮街 Sam Shing Hui Seafood Street","Sam Shing Hui Seafood Street"],"source":"HOTOSM Hong Kong OSM export 2026-05-05","confidence":78},{"id":"hotosm-nodes-4571622643","name":"上水酒店","type":"attraction","address":"景點 / 文化設施","lat":22.50369,"lng":114.12739,"aliases":["上水酒店 Sheung Shui Hotel","Sheung Shui Hotel"],"source":"HOTOSM Hong Kong OSM export 2026-05-05","confidence":78},{"id":"hotosm-nodes-5018207522","name":"上水塘石橋","type":"attraction","address":"景點 / 文化設施","lat":22.256411,"lng":114.210372,"aliases":["上水塘石橋 Masonry Bridge of Upper Reservior","Masonry Bridge of Upper Reservior"],"source":"HOTOSM Hong Kong OSM export 2026-05-05","confidence":78},{"id":"hotosm-ways_poly-616351239","name":"上海宾馆","type":"attraction","address":"3032号 深南中路","lat":22.54387,"lng":114.076835,"aliases":["Shanghai Hotel"],"source":"HOTOSM Hong Kong OSM export 2026-05-05","confidence":78},{"id":"hotosm-nodes-288164948","name":"上環","type":"attraction","address":"景點 / 文化設施","lat":22.286516,"lng":114.150208,"aliases":["上環 Sheung Wan","Sheung Wan"],"source":"HOTOSM Hong Kong OSM export 2026-05-05","confidence":78},{"id":"hotosm-ways_poly-540115823","name":"上環一尚酒店","type":"attraction","address":"263 荷李活道 Hollywood Road","lat":22.285666,"lng":114.147883,"aliases":["上環一尚酒店 Dash Living on Hollywood","Dash Living on Hollywood"],"source":"HOTOSM Hong Kong OSM export 2026-05-05","confidence":78},{"id":"hotosm-nodes-1705334111","name":"上環文娛中心","type":"attraction","address":"345 皇后大道中 Queen's Road Central","lat":22.286154,"lng":114.149526,"aliases":["上環文娛中心 Sheung Wan Civic Centre","Sheung Wan Civic Centre"],"source":"HOTOSM Hong Kong OSM export 2026-05-05","confidence":78},{"id":"hotosm-nodes-6515848087","name":"千島湖清景台","type":"attraction","address":"景點 / 文化設施","lat":22.390936,"lng":114.024157,"aliases":["千島湖清景台 Reservoir Islands Viewpoint","Reservoir Islands Viewpoint"],"source":"HOTOSM Hong Kong OSM export 2026-05-05","confidence":78},{"id":"hotosm-ways_poly-56754241","name":"千禧新世界香港酒店","type":"attraction","address":"72 麼地道 Mody Road","lat":22.299463,"lng":114.179685,"aliases":["千禧新世界香港酒店 New World Millennium Hong Kong Hotel","New World Millennium Hong Kong Hotel"],"source":"HOTOSM Hong Kong OSM export 2026-05-05","confidence":78},{"id":"hotosm-nodes-5790291983","name":"大元邨","type":"attraction","address":"景點 / 文化設施","lat":22.4566,"lng":114.16944,"aliases":["大元邨 Tai Yuen Estate","Tai Yuen Estate"],"source":"HOTOSM Hong Kong OSM export 2026-05-05","confidence":78},{"id":"hotosm-nodes-5051723546","name":"大水管","type":"attraction","address":"景點 / 文化設施","lat":22.515957,"lng":114.115913,"aliases":["大水管 Big Water Pipes","Big Water Pipes"],"source":"HOTOSM Hong Kong OSM export 2026-05-05","confidence":78},{"id":"hotosm-nodes-5305607978","name":"大石墜谷","type":"attraction","address":"景點 / 文化設施","lat":22.434288,"lng":113.968236,"aliases":[],"source":"HOTOSM Hong Kong OSM export 2026-05-05","confidence":78},{"id":"hotosm-nodes-3267100821","name":"大坑墩風箏場觀景台","type":"attraction","address":"景點 / 文化設施","lat":22.28953,"lng":114.299988,"aliases":["大坑墩風箏場觀景台 Tai Hang Tun Kite Flying Area Viewing Point","Tai Hang Tun Kite Flying Area Viewing Point"],"source":"HOTOSM Hong Kong OSM export 2026-05-05","confidence":78},{"id":"hotosm-nodes-3267100822","name":"大坑墩觀景台","type":"attraction","address":"景點 / 文化設施","lat":22.290935,"lng":114.301335,"aliases":["大坑墩觀景台 Tai Hang Tun Viewing Point","Tai Hang Tun Viewing Point"],"source":"HOTOSM Hong Kong OSM export 2026-05-05","confidence":78},{"id":"hotosm-nodes-4333621893","name":"大明里","type":"attraction","address":"景點 / 文化設施","lat":22.447206,"lng":114.168223,"aliases":[],"source":"HOTOSM Hong Kong OSM export 2026-05-05","confidence":78},{"id":"hotosm-nodes-9925943234","name":"大東山一號觀景台","type":"attraction","address":"景點 / 文化設施","lat":22.252302,"lng":113.951908,"aliases":["Sunset Peak Viewing Point No. 1"],"source":"HOTOSM Hong Kong OSM export 2026-05-05","confidence":78},{"id":"hotosm-nodes-3154267718","name":"大美督家樂徑觀景台","type":"attraction","address":"景點 / 文化設施","lat":22.470993,"lng":114.234885,"aliases":["大美督家樂徑觀景台 Tai Mei Tuk Family Walk Viewing Point","Tai Mei Tuk Family Walk Viewing Point"],"source":"HOTOSM Hong Kong OSM export 2026-05-05","confidence":78},{"id":"hotosm-ways_poly-135269246","name":"大美督燒烤場","type":"attraction","address":"景點 / 文化設施","lat":22.471344,"lng":114.232692,"aliases":["大美督燒烤場 Tai Mei Tuk Barbecue Area","Tai Mei Tuk Barbecue Area"],"source":"HOTOSM Hong Kong OSM export 2026-05-05","confidence":78},{"id":"hotosm-ways_poly-135269245","name":"大美督燒烤場","type":"attraction","address":"景點 / 文化設施","lat":22.468678,"lng":114.232291,"aliases":["大美督燒烤場 Tai Mei Tuk Barbecue Area","Tai Mei Tuk Barbecue Area"],"source":"HOTOSM Hong Kong OSM export 2026-05-05","confidence":78},{"id":"hotosm-nodes-5745603276","name":"大埔","type":"attraction","address":"景點 / 文化設施","lat":22.447873,"lng":114.164909,"aliases":["大埔 Tai Po","Tai Po"],"source":"HOTOSM Hong Kong OSM export 2026-05-05","confidence":78},{"id":"hotosm-nodes-5745603273","name":"大埔","type":"attraction","address":"景點 / 文化設施","lat":22.449484,"lng":114.163206,"aliases":[],"source":"HOTOSM Hong Kong OSM export 2026-05-05","confidence":78},{"id":"hotosm-nodes-5788914395","name":"大埔","type":"attraction","address":"景點 / 文化設施","lat":22.447318,"lng":114.169593,"aliases":[],"source":"HOTOSM Hong Kong OSM export 2026-05-05","confidence":78},{"id":"hotosm-nodes-5745603275","name":"大埔","type":"attraction","address":"景點 / 文化設施","lat":22.448797,"lng":114.164166,"aliases":[],"source":"HOTOSM Hong Kong OSM export 2026-05-05","confidence":78},{"id":"hotosm-nodes-5745603274","name":"大埔","type":"attraction","address":"景點 / 文化設施","lat":22.449591,"lng":114.163973,"aliases":[],"source":"HOTOSM Hong Kong OSM export 2026-05-05","confidence":78},{"id":"hotosm-nodes-6324403616","name":"大埔工業邨","type":"attraction","address":"景點 / 文化設施","lat":22.449809,"lng":114.180489,"aliases":["大埔工業邨 Tai Po Industrial Estate","Tai Po Industrial Estate"],"source":"HOTOSM Hong Kong OSM export 2026-05-05","confidence":78},{"id":"hotosm-ways_poly-435445496","name":"大埔文娛中心","type":"attraction","address":"景點 / 文化設施","lat":22.451825,"lng":114.167955,"aliases":["大埔文娛中心 Tai Po Civic Center","Tai Po Civic Center"],"source":"HOTOSM Hong Kong OSM export 2026-05-05","confidence":78},{"id":"hotosm-ways_poly-527563912","name":"大埔地質教育中心","type":"attraction","address":"景點 / 文化設施","lat":22.454015,"lng":114.213636,"aliases":[],"source":"HOTOSM Hong Kong OSM export 2026-05-05","confidence":78},{"id":"hotosm-nodes-6324792883","name":"大埔海濱公園","type":"attraction","address":"景點 / 文化設施","lat":22.44989,"lng":114.172473,"aliases":["大埔海濱公園 Tai Po Waterfront Park","Tai Po Waterfront Park"],"source":"HOTOSM Hong Kong OSM export 2026-05-05","confidence":78},{"id":"hotosm-nodes-6324792884","name":"大埔海濱公園","type":"attraction","address":"景點 / 文化設施","lat":22.448929,"lng":114.172073,"aliases":["大埔海濱公園 Tai Po Waterfront Park","Tai Po Waterfront Park"],"source":"HOTOSM Hong Kong OSM export 2026-05-05","confidence":78},{"id":"hotosm-nodes-6313953310","name":"大埔海濱公園 1/2km 沙田公園 10 1/2 km","type":"attraction","address":"景點 / 文化設施","lat":22.448537,"lng":114.176991,"aliases":[],"source":"HOTOSM Hong Kong OSM export 2026-05-05","confidence":78},{"id":"hotosm-nodes-3226434780","name":"大埔滘自然護理區1號郊遊地點","type":"attraction","address":"景點 / 文化設施","lat":22.428529,"lng":114.180777,"aliases":["大埔滘自然護理區1號郊遊地點 Tai Po Kau Nature Reserve Picnic Site No 1","Tai Po Kau Nature Reserve Picnic Site No 1"],"source":"HOTOSM Hong Kong OSM export 2026-05-05","confidence":78},{"id":"hotosm-nodes-2218176053","name":"大埔滘自然護理區2號郊遊地點","type":"attraction","address":"景點 / 文化設施","lat":22.426063,"lng":114.182111,"aliases":["大埔滘自然護理區2號郊遊地點 Tai Po Kau Nature Reserve Picnic Site No 2","Tai Po Kau Nature Reserve Picnic Site No 2"],"source":"HOTOSM Hong Kong OSM export 2026-05-05","confidence":78},{"id":"hotosm-nodes-3226571747","name":"大埔滘自然護理區3號郊遊地點","type":"attraction","address":"景點 / 文化設施","lat":22.42317,"lng":114.180378,"aliases":["大埔滘自然護理區3號郊遊地點 Tai Po Kau Nature Reserve Picnic Site No 3","Tai Po Kau Nature Reserve Picnic Site No 3"],"source":"HOTOSM Hong Kong OSM export 2026-05-05","confidence":78},{"id":"hotosm-nodes-4089975592","name":"大埔滘自然護理區4號郊遊地點","type":"attraction","address":"景點 / 文化設施","lat":22.420363,"lng":114.170372,"aliases":["大埔滘自然護理區4號郊遊地點 Picnic Site No 4, Tai Po Kau Nature Reserve","Picnic Site No 4, Tai Po Kau Nature Reserve"],"source":"HOTOSM Hong Kong OSM export 2026-05-05","confidence":78},{"id":"hotosm-nodes-4333658570","name":"大埔農產品擺賣場","type":"attraction","address":"景點 / 文化設施","lat":22.451359,"lng":114.163472,"aliases":[],"source":"HOTOSM Hong Kong OSM export 2026-05-05","confidence":78},{"id":"hotosm-nodes-4472119947","name":"大埔道瞭望處","type":"attraction","address":"景點 / 文化設施","lat":22.359824,"lng":114.161625,"aliases":["大埔道瞭望處 Tai Po Road Lookout","Tai Po Road Lookout"],"source":"HOTOSM Hong Kong OSM export 2026-05-05","confidence":78},{"id":"hotosm-nodes-5740012603","name":"大埔賓館 Tai Po Villa","type":"attraction","address":"景點 / 文化設施","lat":22.449465,"lng":114.165735,"aliases":[],"source":"HOTOSM Hong Kong OSM export 2026-05-05","confidence":78},{"id":"hotosm-nodes-5745603545","name":"大埔墟火車站","type":"attraction","address":"景點 / 文化設施","lat":22.447563,"lng":114.164633,"aliases":["大埔墟火車站 Tai Po Market Station","Tai Po Market Station"],"source":"HOTOSM Hong Kong OSM export 2026-05-05","confidence":78},{"id":"hotosm-nodes-5091019758","name":"大埔頭告示板","type":"attraction","address":"景點 / 文化設施","lat":22.455882,"lng":114.158474,"aliases":[],"source":"HOTOSM Hong Kong OSM export 2026-05-05","confidence":78},{"id":"hotosm-ways_poly-191955157","name":"大埔藝術中心","type":"attraction","address":"景點 / 文化設施","lat":22.451532,"lng":114.168302,"aliases":["大埔藝術中心 Tai Po Arts Centre","Tai Po Arts Centre"],"source":"HOTOSM Hong Kong OSM export 2026-05-05","confidence":78},{"id":"hotosm-nodes-1658864663","name":"大浪灣石刻","type":"attraction","address":"景點 / 文化設施","lat":22.246194,"lng":114.248786,"aliases":["大浪灣石刻 Big Wave Bay Rock Carving","Big Wave Bay Rock Carving"],"source":"HOTOSM Hong Kong OSM export 2026-05-05","confidence":78},{"id":"hotosm-nodes-13015755987","name":"大浪灣郊遊區","type":"attraction","address":"景點 / 文化設施","lat":22.245633,"lng":114.2458,"aliases":["大浪灣郊遊區 Big Wave Bay Picnic Area","Big Wave Bay Picnic Area"],"source":"HOTOSM Hong Kong OSM export 2026-05-05","confidence":78},{"id":"hotosm-nodes-1955110567","name":"大浪灣營地","type":"attraction","address":"景點 / 文化設施","lat":22.214152,"lng":113.877839,"aliases":["大浪灣營地 Tai Long Wan Camp Site"],"source":"HOTOSM Hong Kong OSM export 2026-05-05","confidence":78},{"id":"hotosm-nodes-9628800402","name":"大富翁夢想世界","type":"attraction","address":"景點 / 文化設施","lat":22.270204,"lng":114.149889,"aliases":["大富翁夢想世界Monopoly Dreams Hong Kong","Monopoly Dreams Hong Kong"],"source":"HOTOSM Hong Kong OSM export 2026-05-05","confidence":78},{"id":"hotosm-nodes-8584784775","name":"大帽山郊野公園","type":"attraction","address":"景點 / 文化設施","lat":22.405579,"lng":114.105334,"aliases":[],"source":"HOTOSM Hong Kong OSM export 2026-05-05","confidence":78},{"id":"hotosm-nodes-2265823006","name":"大帽山郊野公園6號郊遊地點","type":"attraction","address":"景點 / 文化設施","lat":22.427988,"lng":114.16253,"aliases":["大帽山郊野公園6號郊遊地點 Picnic Site No 6, Tai Mo Shan Country Park","Picnic Site No 6, Tai Mo Shan Country Park"],"source":"HOTOSM Hong Kong OSM export 2026-05-05","confidence":78},{"id":"hotosm-nodes-3983555483","name":"大帽山郊野公園觀景台","type":"attraction","address":"景點 / 文化設施","lat":22.383822,"lng":114.118077,"aliases":["大帽山郊野公園觀景台 Tai Mo Shan Country Park View Compass","Tai Mo Shan Country Park View Compass"],"source":"HOTOSM Hong Kong OSM export 2026-05-05","confidence":78},{"id":"hotosm-nodes-11620864966","name":"大帽山郊野公園觀景台 (北面) Tai Mo Shan Country Park Viewing Point (North)","type":"attraction","address":"景點 / 文化設施","lat":22.412052,"lng":114.116648,"aliases":[],"source":"HOTOSM Hong Kong OSM export 2026-05-05","confidence":78},{"id":"hotosm-nodes-11621304785","name":"大帽山郊野公園觀景台 (南面) Tai Mo Shan Country Park Viewing Point (South)","type":"attraction","address":"景點 / 文化設施","lat":22.411414,"lng":114.117165,"aliases":[],"source":"HOTOSM Hong Kong OSM export 2026-05-05","confidence":78},{"id":"hotosm-nodes-3983555482","name":"大帽山郊遊地點1號場","type":"attraction","address":"景點 / 文化設施","lat":22.383986,"lng":114.118209,"aliases":["大帽山郊遊地點1號場 Tai Mo Shan Picnic Site No.1","Tai Mo Shan Picnic Site No.1"],"source":"HOTOSM Hong Kong OSM export 2026-05-05","confidence":78},{"id":"hotosm-nodes-2275196140","name":"大帽山郊遊地點3號場","type":"attraction","address":"景點 / 文化設施","lat":22.410119,"lng":114.115512,"aliases":["大帽山郊遊地點3號場 Tai Mo Shan Picnic Site No.3","Tai Mo Shan Picnic Site No.3"],"source":"HOTOSM Hong Kong OSM export 2026-05-05","confidence":78},{"id":"hotosm-nodes-10213465977","name":"大帽山貓屋","type":"attraction","address":"景點 / 文化設施","lat":22.414143,"lng":114.123227,"aliases":[],"source":"HOTOSM Hong Kong OSM export 2026-05-05","confidence":78},{"id":"hotosm-nodes-4575147252","name":"大棠楓香林","type":"attraction","address":"景點 / 文化設施","lat":22.398318,"lng":114.036505,"aliases":["大棠楓香林 Tai Tong Sweet Gum Woods (Red Leaves)","Tai Tong Sweet Gum Woods"],"source":"HOTOSM Hong Kong OSM export 2026-05-05","confidence":78},{"id":"hotosm-nodes-3195477035","name":"大棠觀景台","type":"attraction","address":"景點 / 文化設施","lat":22.409674,"lng":114.030433,"aliases":["大棠觀景台 Tai Tong Viewing Point","Tai Tong Viewing Point"],"source":"HOTOSM Hong Kong OSM export 2026-05-05","confidence":78},{"id":"hotosm-nodes-5736739251","name":"大滘新村告示板","type":"attraction","address":"景點 / 文化設施","lat":22.449415,"lng":114.166843,"aliases":[],"source":"HOTOSM Hong Kong OSM export 2026-05-05","confidence":78},{"id":"hotosm-nodes-4333621891","name":"大榮里","type":"attraction","address":"景點 / 文化設施","lat":22.447674,"lng":114.166234,"aliases":[],"source":"HOTOSM Hong Kong OSM export 2026-05-05","confidence":78},{"id":"hotosm-nodes-4836271822","name":"大網仔一號營地","type":"attraction","address":"景點 / 文化設施","lat":22.385832,"lng":114.308117,"aliases":["大網仔一號營地 Tai Mong Tsai Camp Site No.1","Tai Mong Tsai Camp Site No.1"],"source":"HOTOSM Hong Kong OSM export 2026-05-05","confidence":78},{"id":"hotosm-ways_poly-1230293929","name":"大網仔燒烤區四號場","type":"attraction","address":"景點 / 文化設施","lat":22.395928,"lng":114.284269,"aliases":["大網仔燒烤區四號場 Tai Mong Tsai Barbecue Area Site 4","Tai Mong Tsai Barbecue Area Site 4"],"source":"HOTOSM Hong Kong OSM export 2026-05-05","confidence":78},{"id":"hotosm-nodes-8294243822","name":"大嘴鳥石","type":"attraction","address":"景點 / 文化設施","lat":22.389717,"lng":113.989184,"aliases":[],"source":"HOTOSM Hong Kong OSM export 2026-05-05","confidence":78},{"id":"hotosm-nodes-1249567102","name":"大廟灣刻石","type":"attraction","address":"景點 / 文化設施","lat":22.270832,"lng":114.290167,"aliases":["大廟灣刻石 Rock Inscription at Joss House Bay","Rock Inscription at Joss House Bay"],"source":"HOTOSM Hong Kong OSM export 2026-05-05","confidence":78},{"id":"hotosm-nodes-9938657702","name":"大潭郊野公園","type":"attraction","address":"景點 / 文化設施","lat":22.240153,"lng":114.220959,"aliases":["大潭郊野公園 Tai Tam Country Park","Tai Tam Country Park"],"source":"HOTOSM Hong Kong OSM export 2026-05-05","confidence":78},{"id":"hotosm-nodes-9781334246","name":"大潭郊野公園","type":"attraction","address":"景點 / 文化設施","lat":22.223676,"lng":114.208499,"aliases":["大潭郊野公園 Tai Tam Country Park","Tai Tam Country Park"],"source":"HOTOSM Hong Kong OSM export 2026-05-05","confidence":78},{"id":"hotosm-nodes-9748638545","name":"大潭郊野公園（鰂魚涌擴建部份）","type":"attraction","address":"景點 / 文化設施","lat":22.281331,"lng":114.210349,"aliases":["大潭郊野公園（鰂魚涌擴建部份） Tai Tam Country Park (Quarry Bay Extension)","Tai Tam Country Park (Quarry Bay Extension)"],"source":"HOTOSM Hong Kong OSM export 2026-05-05","confidence":78},{"id":"hotosm-nodes-10239762825","name":"大潭郊野公園（鰂魚涌擴建部份）","type":"attraction","address":"景點 / 文化設施","lat":22.285619,"lng":114.204646,"aliases":["大潭郊野公園（鰂魚涌擴建部份） Tai Tam Country Park (Quarry Bay Extension)","Tai Tam Country Park (Quarry Bay Extension)"],"source":"HOTOSM Hong Kong OSM export 2026-05-05","confidence":78},{"id":"hotosm-ways_poly-244750903","name":"大潭童軍中心","type":"attraction","address":"景點 / 文化設施","lat":22.239941,"lng":114.223322,"aliases":["大潭童軍中心 Tai Tam Scout Centre","Tai Tam Scout Centre"],"source":"HOTOSM Hong Kong OSM export 2026-05-05","confidence":78},{"id":"hotosm-ways_poly-1061013259","name":"大潭燒烤區一號場","type":"attraction","address":"景點 / 文化設施","lat":22.258925,"lng":114.198055,"aliases":["大潭燒烤區一號場 Tai Tam BBQ Area Site 1","Tai Tam BBQ Area Site 1"],"source":"HOTOSM Hong Kong OSM export 2026-05-05","confidence":78},{"id":"hotosm-ways_poly-1061013258","name":"大潭燒烤區二號場","type":"attraction","address":"景點 / 文化設施","lat":22.258679,"lng":114.202659,"aliases":["大潭燒烤區二號場 Tai Tam Barbecue Area Site 2","Tai Tam Barbecue Area Site 2"],"source":"HOTOSM Hong Kong OSM export 2026-05-05","confidence":78},{"id":"hotosm-ways_poly-1061013257","name":"大潭燒烤區三號場","type":"attraction","address":"景點 / 文化設施","lat":22.259248,"lng":114.20459,"aliases":["大潭燒烤區三號場 Tai Tam Barbecue Area Site 3","Tai Tam Barbecue Area Site 3"],"source":"HOTOSM Hong Kong OSM export 2026-05-05","confidence":78},{"id":"hotosm-ways_poly-1061013256","name":"大潭燒烤區四號場","type":"attraction","address":"景點 / 文化設施","lat":22.258811,"lng":114.205379,"aliases":["大潭燒烤區四號場 Tai Tam Barbecue Area Site 4","Tai Tam Barbecue Area Site 4"],"source":"HOTOSM Hong Kong OSM export 2026-05-05","confidence":78},{"id":"hotosm-ways_poly-1084568881","name":"大潭篤水塘燒烤區一號場","type":"attraction","address":"景點 / 文化設施","lat":22.240873,"lng":114.219492,"aliases":["大潭篤水塘燒烤區一號場 Tai Tam Tuk Reservoir Barbecue Area Site 1","Tai Tam Tuk Reservoir Barbecue Area Site 1"],"source":"HOTOSM Hong Kong OSM export 2026-05-05","confidence":78},{"id":"hotosm-ways_poly-1084568866","name":"大潭篤水塘燒烤區三號場","type":"attraction","address":"景點 / 文化設施","lat":22.248365,"lng":114.21439,"aliases":["大潭篤水塘燒烤區三號場 Tai Tam Tuk Reservoir Barbecue Area Site 3","Tai Tam Tuk Reservoir Barbecue Area Site 3"],"source":"HOTOSM Hong Kong OSM export 2026-05-05","confidence":78},{"id":"hotosm-nodes-3206142054","name":"大潭觀景台","type":"attraction","address":"景點 / 文化設施","lat":22.257975,"lng":114.208139,"aliases":["大潭觀景台 Tai Tam Viewing Point","Tai Tam Viewing Point"],"source":"HOTOSM Hong Kong OSM export 2026-05-05","confidence":78},{"id":"hotosm-ways_poly-135190719","name":"大學賓館 (曙光樓)","type":"attraction","address":"景點 / 文化設施","lat":22.420094,"lng":114.210684,"aliases":["大學賓館 (曙光樓) University Guest House (Chiangs Bldg.)","University Guest House (Chiangs Bldg.)"],"source":"HOTOSM Hong Kong OSM export 2026-05-05","confidence":78},{"id":"hotosm-ways_poly-170698530","name":"大澳文物酒店","type":"attraction","address":"景點 / 文化設施","lat":22.253323,"lng":113.85362,"aliases":["大澳文物酒店 Tai O Heritage Hotel","Tai O Heritage Hotel"],"source":"HOTOSM Hong Kong OSM export 2026-05-05","confidence":78},{"id":"hotosm-nodes-4592843494","name":"大澳橋","type":"attraction","address":"景點 / 文化設施","lat":22.253911,"lng":113.862126,"aliases":["Tai O Bridge"],"source":"HOTOSM Hong Kong OSM export 2026-05-05","confidence":78},{"id":"hotosm-nodes-2054496181","name":"大澳觀景台","type":"attraction","address":"景點 / 文化設施","lat":22.241614,"lng":113.856098,"aliases":["大澳觀景台 Tai O View Compass","Tai O View Compass"],"source":"HOTOSM Hong Kong OSM export 2026-05-05","confidence":78},{"id":"hotosm-nodes-8814104912","name":"大嶼山西南海岸公園","type":"attraction","address":"景點 / 文化設施","lat":22.214779,"lng":113.837379,"aliases":["大嶼山西南海岸公園 Southwest Lantau Marine Park","Southwest Lantau Marine Park"],"source":"HOTOSM Hong Kong OSM export 2026-05-05","confidence":78},{"id":"hotosm-nodes-8699779117","name":"大鏟洲","type":"attraction","address":"景點 / 文化設施","lat":22.375472,"lng":114.29068,"aliases":[],"source":"HOTOSM Hong Kong OSM export 2026-05-05","confidence":78},{"id":"hotosm-nodes-7921977936","name":"大鐵人","type":"attraction","address":"景點 / 文化設施","lat":22.312135,"lng":114.222246,"aliases":["大鐵人 Giant Robot","Giant Robot"],"source":"HOTOSM Hong Kong OSM export 2026-05-05","confidence":78},{"id":"hotosm-ways_poly-399149791","name":"大灘訓練營","type":"attraction","address":"景點 / 文化設施","lat":22.435892,"lng":114.333613,"aliases":["大灘訓練營 Tai Tan Camp","Tai Tan Camp"],"source":"HOTOSM Hong Kong OSM export 2026-05-05","confidence":78},{"id":"hotosm-nodes-2154504594","name":"大灘營地","type":"attraction","address":"景點 / 文化設施","lat":22.43711,"lng":114.334033,"aliases":["大灘營地 Tai Tan Campsite","Tai Tan Campsite"],"source":"HOTOSM Hong Kong OSM export 2026-05-05","confidence":78},{"id":"hotosm-nodes-3195477040","name":"大欖自然教育徑觀景台","type":"attraction","address":"景點 / 文化設施","lat":22.380752,"lng":114.04049,"aliases":["大欖自然教育徑觀景台 Tai Lam Nature Trail Viewing Point","Tai Lam Nature Trail Viewing Point"],"source":"HOTOSM Hong Kong OSM export 2026-05-05","confidence":78},{"id":"hotosm-nodes-6141830614","name":"大欖自然教育徑觀景台","type":"attraction","address":"景點 / 文化設施","lat":22.380032,"lng":114.044763,"aliases":["大欖自然教育徑觀景台 Tai Lam Nature Trail Viewing Point","Tai Lam Nature Trail Viewing Point"],"source":"HOTOSM Hong Kong OSM export 2026-05-05","confidence":78},{"id":"hotosm-nodes-12218107906","name":"大欖自然教育徑觀景台","type":"attraction","address":"景點 / 文化設施","lat":22.380078,"lng":114.044631,"aliases":["大欖自然教育徑觀景台 Tai Lam Nature Trail Viewing Point","Tai Lam Nature Trail Viewing Point"],"source":"HOTOSM Hong Kong OSM export 2026-05-05","confidence":78},{"id":"hotosm-ways_poly-906154980","name":"女人街","type":"attraction","address":"通菜街 Tung Choi Street","lat":22.317537,"lng":114.17092,"aliases":["女人街 Ladies Market","Ladies Market"],"source":"HOTOSM Hong Kong OSM export 2026-05-05","confidence":78},{"id":"hotosm-ways_poly-323624273","name":"女童軍馬沈慧芙野外訓練中心","type":"attraction","address":"景點 / 文化設施","lat":22.263476,"lng":114.230194,"aliases":["女童軍馬沈慧芙野外訓練中心 Girl Guides Cecilia Mar Venture House","Girl Guides Cecilia Mar Venture House"],"source":"HOTOSM Hong Kong OSM export 2026-05-05","confidence":78},{"id":"hotosm-nodes-3923508604","name":"小丑石","type":"attraction","address":"景點 / 文化設施","lat":22.400226,"lng":114.122766,"aliases":[],"source":"HOTOSM Hong Kong OSM export 2026-05-05","confidence":78},{"id":"hotosm-nodes-12428090663","name":"小長城","type":"attraction","address":"景點 / 文化設施","lat":22.206241,"lng":114.034969,"aliases":["小長城 Mini Great Wall","Mini Great Wall"],"source":"HOTOSM Hong Kong OSM export 2026-05-05","confidence":78},{"id":"hotosm-ways_poly-829394671","name":"小島山丘","type":"attraction","address":"景點 / 文化設施","lat":22.349707,"lng":114.055709,"aliases":["小島山丘 Island Hideout","Island Hideout"],"source":"HOTOSM Hong Kong OSM export 2026-05-05","confidence":78},{"id":"hotosm-ways_poly-1213202397","name":"小瀛故事館","type":"attraction","address":"景點 / 文化設施","lat":22.527113,"lng":114.260765,"aliases":["小瀛故事館 Siu Ying Story Room","Siu Ying Story Room"],"source":"HOTOSM Hong Kong OSM export 2026-05-05","confidence":78},{"id":"hotosm-nodes-10828717305","name":"山水时尚酒店","type":"attraction","address":"景點 / 文化設施","lat":22.546737,"lng":114.083845,"aliases":["Shanshui Trends Hotel"],"source":"HOTOSM Hong Kong OSM export 2026-05-05","confidence":78},{"id":"hotosm-nodes-9516972932","name":"山字石","type":"attraction","address":"景點 / 文化設施","lat":22.186195,"lng":114.144693,"aliases":[],"source":"HOTOSM Hong Kong OSM export 2026-05-05","confidence":78},{"id":"hotosm-ways_poly-692796083","name":"山林舍","type":"attraction","address":"17-19 山林道 Hillwood Road","lat":22.30287,"lng":114.173029,"aliases":["山林舍 Hillwood House Hotel","Hillwood House Hotel"],"source":"HOTOSM Hong Kong OSM export 2026-05-05","confidence":78},{"id":"hotosm-nodes-8620236933","name":"山泥傾瀉警告","type":"attraction","address":"景點 / 文化設施","lat":22.357888,"lng":114.223509,"aliases":[],"source":"HOTOSM Hong Kong OSM export 2026-05-05","confidence":78},{"id":"hotosm-nodes-8620236934","name":"山泥傾瀉警告","type":"attraction","address":"景點 / 文化設施","lat":22.357685,"lng":114.225235,"aliases":[],"source":"HOTOSM Hong Kong OSM export 2026-05-05","confidence":78},{"id":"hotosm-nodes-26412045","name":"山頂","type":"attraction","address":"景點 / 文化設施","lat":22.271123,"lng":114.150141,"aliases":["山頂 The Peak","The Peak"],"source":"HOTOSM Hong Kong OSM export 2026-05-05","confidence":78},{"id":"hotosm-nodes-4698572141","name":"山頂練靶場郊遊區","type":"attraction","address":"景點 / 文化設施","lat":22.271361,"lng":114.13944,"aliases":["山頂練靶場郊遊區 Peak Firing Range Picnic Area","Peak Firing Range Picnic Area"],"source":"HOTOSM Hong Kong OSM export 2026-05-05","confidence":78},{"id":"hotosm-nodes-9518525937","name":"山藏智叟石","type":"attraction","address":"景點 / 文化設施","lat":22.319901,"lng":114.016217,"aliases":[],"source":"HOTOSM Hong Kong OSM export 2026-05-05","confidence":78},{"id":"hotosm-nodes-3116643403","name":"川龍家樂徑觀景台","type":"attraction","address":"景點 / 文化設施","lat":22.394355,"lng":114.106166,"aliases":["川龍家樂徑觀景台 Chuen Lung Family Walk Viewing Point","Chuen Lung Family Walk Viewing Point"],"source":"HOTOSM Hong Kong OSM export 2026-05-05","confidence":78},{"id":"hotosm-nodes-3781684078","name":"川龍管理站","type":"attraction","address":"景點 / 文化設施","lat":22.390616,"lng":114.112413,"aliases":["川龍管理站 Chuen Lung Management Centre","Chuen Lung Management Centre"],"source":"HOTOSM Hong Kong OSM export 2026-05-05","confidence":78},{"id":"hotosm-ways_poly-299215683","name":"工業家酒店","type":"attraction","address":"326 觀塘道 Kwun Tong Road","lat":22.316376,"lng":114.21572,"aliases":["工業家酒店 The ind Hotel","The ind Hotel"],"source":"HOTOSM Hong Kong OSM export 2026-05-05","confidence":78},{"id":"hotosm-nodes-7752626016","name":"广东岭南工艺美术馆","type":"attraction","address":"景點 / 文化設施","lat":22.506091,"lng":114.046477,"aliases":[],"source":"HOTOSM Hong Kong OSM export 2026-05-05","confidence":78},{"id":"hotosm-nodes-12852380506","name":"广深铁路观景点","type":"attraction","address":"景點 / 文化設施","lat":22.549138,"lng":114.10998,"aliases":[],"source":"HOTOSM Hong Kong OSM export 2026-05-05","confidence":78},{"id":"hotosm-nodes-11118559991","name":"飞瀑公园","type":"attraction","address":"景點 / 文化設施","lat":22.568311,"lng":114.225776,"aliases":[],"source":"HOTOSM Hong Kong OSM export 2026-05-05","confidence":78},{"id":"hotosm-nodes-5600562843","name":"中英街","type":"attraction","address":"景點 / 文化設施","lat":22.547872,"lng":114.226971,"aliases":["中英街 Chung Ying Street","Chung Ying Street"],"source":"HOTOSM Hong Kong OSM export 2026-05-05","confidence":78},{"id":"hotosm-ways_poly-741837703","name":"中英街历史博物馆","type":"attraction","address":"景點 / 文化設施","lat":22.544463,"lng":114.226383,"aliases":[],"source":"HOTOSM Hong Kong OSM export 2026-05-05","confidence":78},{"id":"hotosm-nodes-6944601612","name":"中英街警世钟","type":"attraction","address":"景點 / 文化設施","lat":22.544452,"lng":114.226097,"aliases":[],"source":"HOTOSM Hong Kong OSM export 2026-05-05","confidence":78},{"id":"hotosm-ways_poly-887873493","name":"中泰来大酒店","type":"attraction","address":"景點 / 文化設施","lat":22.54718,"lng":114.11174,"aliases":["Zhongtailai Hotel"],"source":"HOTOSM Hong Kong OSM export 2026-05-05","confidence":78},{"id":"hotosm-nodes-9259959494","name":"中尉石室","type":"attraction","address":"景點 / 文化設施","lat":22.392815,"lng":114.244703,"aliases":[],"source":"HOTOSM Hong Kong OSM export 2026-05-05","confidence":78},{"id":"hotosm-nodes-7892701787","name":"中華白海豚塑像","type":"attraction","address":"景點 / 文化設施","lat":22.348134,"lng":114.055213,"aliases":["中華白海豚塑像 Dolphin Sculpture","Dolphin Sculpture"],"source":"HOTOSM Hong Kong OSM export 2026-05-05","confidence":78},{"id":"hotosm-nodes-6332109697","name":"中華麗葉脩","type":"attraction","address":"景點 / 文化設施","lat":22.450853,"lng":114.178712,"aliases":[],"source":"HOTOSM Hong Kong OSM export 2026-05-05","confidence":78},{"id":"hotosm-ways_poly-813663012","name":"中電鐘樓文化館","type":"attraction","address":"147 亞皆老街 Argyle Street","lat":22.321453,"lng":114.177226,"aliases":["中電鐘樓文化館 CLP Pulse","CLP Pulse"],"source":"HOTOSM Hong Kong OSM export 2026-05-05","confidence":78},{"id":"hotosm-nodes-760846303","name":"中遠酒店","type":"attraction","address":"堅彌地城海旁 Praya, Kennedy Town","lat":22.285733,"lng":114.132074,"aliases":["中遠酒店 Cosco Hotel","Cosco Hotel"],"source":"HOTOSM Hong Kong OSM export 2026-05-05","confidence":78},{"id":"hotosm-ways_poly-254652610","name":"丹木町酒店","type":"attraction","address":"5 棉登徑 Minden Avenue","lat":22.296924,"lng":114.173999,"aliases":["丹木町酒店 Tankityou Hotel","Tankityou Hotel"],"source":"HOTOSM Hong Kong OSM export 2026-05-05","confidence":78},{"id":"hotosm-nodes-4395634660","name":"五十週年紀念植樹 50th Anniversary Commemorative Tree Planning","type":"attraction","address":"景點 / 文化設施","lat":22.422385,"lng":114.124462,"aliases":["50th Anniversary Commemorative Tree Planning"],"source":"HOTOSM Hong Kong OSM export 2026-05-05","confidence":78},{"id":"hotosm-nodes-3623475497","name":"五行石","type":"attraction","address":"景點 / 文化設施","lat":22.198253,"lng":114.018376,"aliases":["五行石 Reclining Rock","Reclining Rock"],"source":"HOTOSM Hong Kong OSM export 2026-05-05","confidence":78},{"id":"hotosm-nodes-1194150517","name":"元五墳營地","type":"attraction","address":"景點 / 文化設施","lat":22.377595,"lng":114.332529,"aliases":["元五墳營地 Yuen Ng Fan Campsite","Yuen Ng Fan Campsite"],"source":"HOTOSM Hong Kong OSM export 2026-05-05","confidence":78},{"id":"hotosm-nodes-3237582065","name":"元五墳觀景台","type":"attraction","address":"景點 / 文化設施","lat":22.3811,"lng":114.335999,"aliases":["元五墳觀景台 Yuen Ng Fan Viewing Point","Yuen Ng Fan Viewing Point"],"source":"HOTOSM Hong Kong OSM export 2026-05-05","confidence":78},{"id":"hotosm-ways_poly-228010018","name":"元朗劇院","type":"attraction","address":"9 元朗體育路 Yuen Long Tai Yuk Road","lat":22.441483,"lng":114.022871,"aliases":["元朗劇院 Yuen Long Theatre","Yuen Long Theatre"],"source":"HOTOSM Hong Kong OSM export 2026-05-05","confidence":78},{"id":"hotosm-nodes-3198413645","name":"元荃古道","type":"attraction","address":"景點 / 文化設施","lat":22.390406,"lng":114.065633,"aliases":["元荃古道 Yuen Tsuen Ancient Trail","Yuen Tsuen Ancient Trail"],"source":"HOTOSM Hong Kong OSM export 2026-05-05","confidence":78},{"id":"hotosm-nodes-5787083186","name":"公園指南","type":"attraction","address":"景點 / 文化設施","lat":22.451707,"lng":114.191468,"aliases":["公園指南 Park Directory","Park Directory"],"source":"HOTOSM Hong Kong OSM export 2026-05-05","confidence":78},{"id":"hotosm-ways_poly-258911131","name":"公園辦事處","type":"attraction","address":"2 源禾路 Yuen Wo Road","lat":22.38192,"lng":114.191502,"aliases":["公園辦事處 Park Office","Park Office"],"source":"HOTOSM Hong Kong OSM export 2026-05-05","confidence":78},{"id":"hotosm-nodes-1619220065","name":"六國酒店","type":"attraction","address":"景點 / 文化設施","lat":22.278903,"lng":114.172269,"aliases":["六國酒店 Luk Kwok Hotel","Luk Kwok Hotel"],"source":"HOTOSM Hong Kong OSM export 2026-05-05","confidence":78},{"id":"hotosm-nodes-1134012220","name":"分流石筍","type":"attraction","address":"景點 / 文化設施","lat":22.19803,"lng":113.852289,"aliases":["分流石筍 Fan Lau Stalagmite","Fan Lau Stalagmite"],"source":"HOTOSM Hong Kong OSM export 2026-05-05","confidence":78},{"id":"hotosm-ways_poly-822828458","name":"分流石圓環","type":"attraction","address":"景點 / 文化設施","lat":22.197741,"lng":113.848021,"aliases":["分流石圓環 Fan Lau Stone Circle","fan Lau Stone Circle"],"source":"HOTOSM Hong Kong OSM export 2026-05-05","confidence":78},{"id":"hotosm-ways_poly-105234588","name":"分流炮台","type":"attraction","address":"景點 / 文化設施","lat":22.198442,"lng":113.85112,"aliases":["分流炮台 Fan Lau Fort","Fan Lau Fort"],"source":"HOTOSM Hong Kong OSM export 2026-05-05","confidence":78},{"id":"hotosm-nodes-2439978557","name":"天一泉","type":"attraction","address":"景點 / 文化設施","lat":22.337746,"lng":114.264463,"aliases":["天一泉 One-World-Fountain","One-World-Fountain"],"source":"HOTOSM Hong Kong OSM export 2026-05-05","confidence":78},{"id":"hotosm-ways_poly-1262090531","name":"天天酒店","type":"attraction","address":"景點 / 文化設施","lat":22.547116,"lng":114.100785,"aliases":["Tiantian Hotel"],"source":"HOTOSM Hong Kong OSM export 2026-05-05","confidence":78},{"id":"hotosm-nodes-4656400750","name":"天文公園","type":"attraction","address":"景點 / 文化設施","lat":22.375907,"lng":114.336092,"aliases":["天文公園 Astropark","Astropark"],"source":"HOTOSM Hong Kong OSM export 2026-05-05","confidence":78},{"id":"hotosm-ways_poly-587740480","name":"天文公園","type":"attraction","address":"景點 / 文化設施","lat":22.376255,"lng":114.33602,"aliases":["天文公園 Astropark","Astropark"],"source":"HOTOSM Hong Kong OSM export 2026-05-05","confidence":78},{"id":"hotosm-nodes-7437339066","name":"天后之牀","type":"attraction","address":"景點 / 文化設施","lat":22.387526,"lng":113.991683,"aliases":["The Bed of Heavenly Queen"],"source":"HOTOSM Hong Kong OSM export 2026-05-05","confidence":78},{"id":"hotosm-nodes-7415328585","name":"天書壁","type":"attraction","address":"景點 / 文化設施","lat":22.280728,"lng":113.959922,"aliases":["天書壁 Heavenly Book Wall","Heavenly Book Wall"],"source":"HOTOSM Hong Kong OSM export 2026-05-05","confidence":78},{"id":"hotosm-nodes-6332116595","name":"天堂鳥園 Heliconia Garden","type":"attraction","address":"景點 / 文化設施","lat":22.451708,"lng":114.180392,"aliases":[],"source":"HOTOSM Hong Kong OSM export 2026-05-05","confidence":78},{"id":"hotosm-nodes-2106910301","name":"天際100","type":"attraction","address":"1 柯士甸道西 Austin Road West","lat":22.30334,"lng":114.160381,"aliases":["天際100 Sky100","Sky100"],"source":"HOTOSM Hong Kong OSM export 2026-05-05","confidence":78},{"id":"hotosm-nodes-2335541040","name":"天壇大佛","type":"attraction","address":"景點 / 文化設施","lat":22.253963,"lng":113.905012,"aliases":["天壇大佛 Tian Tan Buddha Statue","Tian Tan Buddha Statue"],"source":"HOTOSM Hong Kong OSM export 2026-05-05","confidence":78},{"id":"hotosm-nodes-2131730508","name":"太平山獅子亭 The Peak Lions Viewpoint","type":"attraction","address":"景點 / 文化設施","lat":22.270938,"lng":114.150825,"aliases":["The Peak Lions Viewpoint"],"source":"HOTOSM Hong Kong OSM export 2026-05-05","confidence":78},{"id":"hotosm-ways_poly-432974586","name":"太和露天劇場 Tai Wo Amphitheatre","type":"attraction","address":"景點 / 文化設施","lat":22.449954,"lng":114.159825,"aliases":["Tai Wo Amphitheatre"],"source":"HOTOSM Hong Kong OSM export 2026-05-05","confidence":78},{"id":"hotosm-ways_poly-351079986","name":"太陽村莊","type":"attraction","address":"景點 / 文化設施","lat":22.34884,"lng":114.057766,"aliases":["太陽村莊 Solar Villas","Solar Villas"],"source":"HOTOSM Hong Kong OSM export 2026-05-05","confidence":78},{"id":"hotosm-nodes-6630661107","name":"孔子","type":"attraction","address":"景點 / 文化設施","lat":22.556813,"lng":114.142373,"aliases":[],"source":"HOTOSM Hong Kong OSM export 2026-05-05","confidence":78},{"id":"hotosm-nodes-6310106503","name":"孔子","type":"attraction","address":"景點 / 文化設施","lat":22.469082,"lng":114.19395,"aliases":[],"source":"HOTOSM Hong Kong OSM export 2026-05-05","confidence":78},{"id":"hotosm-nodes-3504157760","name":"孔子像","type":"attraction","address":"景點 / 文化設施","lat":22.274094,"lng":114.186945,"aliases":["孔子像 Statue of Confucius","Statue of Confucius"],"source":"HOTOSM Hong Kong OSM export 2026-05-05","confidence":78},{"id":"hotosm-nodes-2388097875","name":"孔子像","type":"attraction","address":"景點 / 文化設施","lat":22.420867,"lng":114.208658,"aliases":["孔子像 Statue of Confucius","Statue of Confucius"],"source":"HOTOSM Hong Kong OSM export 2026-05-05","confidence":78},{"id":"hotosm-nodes-3960651670","name":"尤德爵士紀念亭觀景台","type":"attraction","address":"景點 / 文化設施","lat":22.51177,"lng":114.213579,"aliases":["尤德爵士紀念亭觀景台 Edward Youde Memorial Pavilion Viewing Point","Edward Youde Memorial Pavilion Viewing Point"],"source":"HOTOSM Hong Kong OSM export 2026-05-05","confidence":78},{"id":"hotosm-ways_poly-114282518","name":"尤德觀鳥園","type":"attraction","address":"景點 / 文化設施","lat":22.276464,"lng":114.160656,"aliases":["尤德觀鳥園 Edward Youde Aviary","Edward Youde Aviary"],"source":"HOTOSM Hong Kong OSM export 2026-05-05","confidence":78},{"id":"hotosm-ways_poly-1326289824","name":"屯門大會堂","type":"attraction","address":"3 屯喜路 Tuen Hi Road","lat":22.39171,"lng":113.976772,"aliases":["屯門大會堂 Tuen Mun Town Hall","Tuen Mun Town Hall"],"source":"HOTOSM Hong Kong OSM export 2026-05-05","confidence":78},{"id":"hotosm-nodes-7222002085","name":"屯門徑彩虹段","type":"attraction","address":"景點 / 文化設施","lat":22.398942,"lng":113.983528,"aliases":[],"source":"HOTOSM Hong Kong OSM export 2026-05-05","confidence":78},{"id":"hotosm-ways_poly-875381546","name":"屯門燒烤區場地2","type":"attraction","address":"景點 / 文化設施","lat":22.382499,"lng":113.98375,"aliases":["屯門燒烤區場地2 Tuen Mun Barbecue Area Site No.2","Tuen Mun Barbecue Area Site No.2"],"source":"HOTOSM Hong Kong OSM export 2026-05-05","confidence":78},{"id":"hotosm-nodes-5342215636","name":"巴布亞新幾內亞布製面具","type":"attraction","address":"景點 / 文化設施","lat":22.307426,"lng":114.037919,"aliases":["巴布亞新幾內亞布製面具 Kavat Masks","Kavat Masks"],"source":"HOTOSM Hong Kong OSM export 2026-05-05","confidence":78},{"id":"hotosm-nodes-4443950090","name":"幻彩詠香江","type":"attraction","address":"景點 / 文化設施","lat":22.290617,"lng":114.167647,"aliases":["幻彩詠香江 Symphony of Lights","Symphony of Lights"],"source":"HOTOSM Hong Kong OSM export 2026-05-05","confidence":78},{"id":"hotosm-ways_poly-1366522116","name":"心經簡林","type":"attraction","address":"景點 / 文化設施","lat":22.252373,"lng":113.911737,"aliases":["心經簡林 Wisdom Path","Wisdom Path"],"source":"HOTOSM Hong Kong OSM export 2026-05-05","confidence":78},{"id":"hotosm-ways_poly-319658451","name":"文武廟","type":"attraction","address":"景點 / 文化設施","lat":22.283914,"lng":114.150079,"aliases":["文武廟 Man Mo Temple","Man Mo Temple"],"source":"HOTOSM Hong Kong OSM export 2026-05-05","confidence":78},{"id":"hotosm-ways_poly-230238511","name":"文物館","type":"attraction","address":"景點 / 文化設施","lat":22.419039,"lng":114.206227,"aliases":["文物館 Art Museum","Art Museum"],"source":"HOTOSM Hong Kong OSM export 2026-05-05","confidence":78},{"id":"hotosm-nodes-4172467890","name":"日晷","type":"attraction","address":"景點 / 文化設施","lat":22.452027,"lng":114.166062,"aliases":["日晷 Sundial","Sundial"],"source":"HOTOSM Hong Kong OSM export 2026-05-05","confidence":78},{"id":"hotosm-nodes-5304940517","name":"月牙谷","type":"attraction","address":"景點 / 文化設施","lat":22.399602,"lng":113.941073,"aliases":[],"source":"HOTOSM Hong Kong OSM export 2026-05-05","confidence":78},{"id":"hotosm-nodes-8146989128","name":"木星美术馆","type":"attraction","address":"景點 / 文化設施","lat":22.50499,"lng":114.051554,"aliases":[],"source":"HOTOSM Hong Kong OSM export 2026-05-05","confidence":78},{"id":"hotosm-nodes-9329732036","name":"毛主席石","type":"attraction","address":"景點 / 文化設施","lat":22.386247,"lng":113.997108,"aliases":["Chairman Mao Rock"],"source":"HOTOSM Hong Kong OSM export 2026-05-05","confidence":78},{"id":"hotosm-ways_poly-536527853","name":"水上樂園","type":"attraction","address":"景點 / 文化設施","lat":22.235949,"lng":114.168192,"aliases":["水上樂園 Water World","Water World"],"source":"HOTOSM Hong Kong OSM export 2026-05-05","confidence":78},{"id":"hotosm-nodes-7201439446","name":"水知園","type":"attraction","address":"景點 / 文化設施","lat":22.456222,"lng":114.008044,"aliases":["水知園 H2OPE Centre","H2OPE Centre"],"source":"HOTOSM Hong Kong OSM export 2026-05-05","confidence":78},{"id":"hotosm-ways_poly-1229652219","name":"水浪窩燒烤場","type":"attraction","address":"景點 / 文化設施","lat":22.404744,"lng":114.277025,"aliases":["水浪窩燒烤場 Shui Long Wo BBQ Area","Shui Long Wo BBQ Area"],"source":"HOTOSM Hong Kong OSM export 2026-05-05","confidence":78},{"id":"hotosm-ways_poly-1229652217","name":"水浪窩營地","type":"attraction","address":"景點 / 文化設施","lat":22.402718,"lng":114.275185,"aliases":["水浪窩營地 Shui Long Wo Campsite","Shui Long Wo Campsite"],"source":"HOTOSM Hong Kong OSM export 2026-05-05","confidence":78},{"id":"hotosm-ways_poly-1229652220","name":"水浪窩觀星台","type":"attraction","address":"景點 / 文化設施","lat":22.404667,"lng":114.277093,"aliases":["水浪窩觀星台 Shui Long Wo Star Lookout","Shui Long Wo Star Lookout"],"source":"HOTOSM Hong Kong OSM export 2026-05-05","confidence":78},{"id":"hotosm-nodes-5188565701","name":"水畔千層 Waterside Paperbarks","type":"attraction","address":"景點 / 文化設施","lat":22.391984,"lng":114.149118,"aliases":["Waterside Paperbarks"],"source":"HOTOSM Hong Kong OSM export 2026-05-05","confidence":78},{"id":"hotosm-ways_poly-670691914","name":"水都酒店","type":"attraction","address":"景點 / 文化設施","lat":22.52069,"lng":114.059133,"aliases":[],"source":"HOTOSM Hong Kong OSM export 2026-05-05","confidence":78},{"id":"hotosm-ways_poly-266586303","name":"火山探知館","type":"attraction","address":"景點 / 文化設施","lat":22.3824,"lng":114.274086,"aliases":["火山探知館 Volcano Discovery Centre","Volcano Discovery Centre"],"source":"HOTOSM Hong Kong OSM export 2026-05-05","confidence":78},{"id":"hotosm-nodes-5745603464","name":"火車模型","type":"attraction","address":"景點 / 文化設施","lat":22.448411,"lng":114.163758,"aliases":["火車模型 Railway Models","Railway Models"],"source":"HOTOSM Hong Kong OSM export 2026-05-05","confidence":78},{"id":"hotosm-nodes-9530121739","name":"火炬石/魚翅石","type":"attraction","address":"景點 / 文化設施","lat":22.196882,"lng":114.024189,"aliases":[],"source":"HOTOSM Hong Kong OSM export 2026-05-05","confidence":78},{"id":"hotosm-ways_poly-351587782","name":"火紅海岸","type":"attraction","address":"景點 / 文化設施","lat":22.509605,"lng":114.33088,"aliases":[],"source":"HOTOSM Hong Kong OSM export 2026-05-05","confidence":78},{"id":"hotosm-nodes-2439950828","name":"火鳥","type":"attraction","address":"景點 / 文化設施","lat":22.33752,"lng":114.262992,"aliases":["火鳥 Red Bird","Red Bird"],"source":"HOTOSM Hong Kong OSM export 2026-05-05","confidence":78},{"id":"hotosm-nodes-1236965238","name":"牙鷹角營地","type":"attraction","address":"景點 / 文化設施","lat":22.238682,"lng":113.852962,"aliases":["牙鷹角營地 Nga Ying Kok Campsite","Nga Ying Kok Campsite"],"source":"HOTOSM Hong Kong OSM export 2026-05-05","confidence":78},{"id":"hotosm-ways_poly-225873672","name":"牛棚藝術村","type":"attraction","address":"63 馬頭角道 Ma Tau Kok Road","lat":22.320818,"lng":114.191509,"aliases":["牛棚藝術村 Cattle Depot Artist Village","Cattle Depot Artist Village"],"source":"HOTOSM Hong Kong OSM export 2026-05-05","confidence":78},{"id":"hotosm-nodes-9676298842","name":"牛寮野外定向徑 Ngau Liu Orienteering Trail","type":"attraction","address":"景點 / 文化設施","lat":22.407044,"lng":114.104777,"aliases":[],"source":"HOTOSM Hong Kong OSM export 2026-05-05","confidence":78},{"id":"hotosm-ways_poly-694534407","name":"王子酒店","type":"attraction","address":"46-54 廟街 Temple Street","lat":22.310439,"lng":114.170515,"aliases":["王子酒店 Kings Hotel","Kings Hotel"],"source":"HOTOSM Hong Kong OSM export 2026-05-05","confidence":78},{"id":"hotosm-ways_poly-203993028","name":"王兆生領袖訓練學院","type":"attraction","address":"景點 / 文化設施","lat":22.359515,"lng":114.265789,"aliases":["王兆生領袖訓練學院 Wong Siu Sang Leadership Training Institute","Wong Siu Sang Leadership Training Institute"],"source":"HOTOSM Hong Kong OSM export 2026-05-05","confidence":78},{"id":"hotosm-ways_poly-683493448","name":"贝岭居宾馆","type":"attraction","address":"景點 / 文化設施","lat":22.559482,"lng":114.136602,"aliases":[],"source":"HOTOSM Hong Kong OSM export 2026-05-05","confidence":78},{"id":"hotosm-ways_poly-1418283061","name":"世外桃源","type":"attraction","address":"173 蓮麻坑路 Lin Ma Hang Road","lat":22.555426,"lng":114.158115,"aliases":["世外桃源 Park Nature Hillside","Park Nature Hillside"],"source":"HOTOSM Hong Kong OSM export 2026-05-05","confidence":78},{"id":"hotosm-nodes-4395634653","name":"世界主要城市指示牌 Signpost Corner","type":"attraction","address":"景點 / 文化設施","lat":22.427763,"lng":114.121021,"aliases":["Signpost Corner"],"source":"HOTOSM Hong Kong OSM export 2026-05-05","confidence":78},{"id":"hotosm-nodes-2897473428","name":"东门","type":"attraction","address":"景點 / 文化設施","lat":22.549841,"lng":114.116042,"aliases":["Dongmen"],"source":"HOTOSM Hong Kong OSM export 2026-05-05","confidence":78},{"id":"hotosm-ways_poly-692964652","name":"仕德福山景酒店","type":"attraction","address":"13-17 天文臺道 Observatory Road","lat":22.301446,"lng":114.174466,"aliases":["仕德福山景酒店 Stanford Hillview Hotel","Stanford Hillview Hotel"],"source":"HOTOSM Hong Kong OSM export 2026-05-05","confidence":78},{"id":"hotosm-ways_poly-1278390490","name":"仕德福酒店","type":"attraction","address":"118 豉油街 Soy Street","lat":22.316996,"lng":114.173178,"aliases":["仕德福酒店 Stanford Hotel","Stanford Hotel"],"source":"HOTOSM Hong Kong OSM export 2026-05-05","confidence":78},{"id":"hotosm-nodes-4771915169","name":"仙人曬靴石","type":"attraction","address":"景點 / 文化設施","lat":22.345057,"lng":114.217575,"aliases":[],"source":"HOTOSM Hong Kong OSM export 2026-05-05","confidence":78},{"id":"hotosm-nodes-3176643465","name":"仙之湖酒店","type":"attraction","address":"景點 / 文化設施","lat":22.550065,"lng":114.142493,"aliases":[],"source":"HOTOSM Hong Kong OSM export 2026-05-05","confidence":78},{"id":"hotosm-nodes-4931690897","name":"仙翁迎賓","type":"attraction","address":"景點 / 文化設施","lat":22.215159,"lng":114.003278,"aliases":[],"source":"HOTOSM Hong Kong OSM export 2026-05-05","confidence":78},{"id":"hotosm-nodes-1885029150","name":"以勒音樂廳","type":"attraction","address":"景點 / 文化設施","lat":22.345802,"lng":114.205436,"aliases":["以勒音樂廳 Jehovahjireh Concert Hall","Jehovahjireh Concert Hall"],"source":"HOTOSM Hong Kong OSM export 2026-05-05","confidence":78},{"id":"hotosm-nodes-11118559989","name":"仪花谷","type":"attraction","address":"景點 / 文化設施","lat":22.568751,"lng":114.228622,"aliases":[],"source":"HOTOSM Hong Kong OSM export 2026-05-05","confidence":78},{"id":"hotosm-nodes-12518315451","name":"兰欧酒店","type":"attraction","address":"景點 / 文化設施","lat":22.541779,"lng":114.121408,"aliases":[],"source":"HOTOSM Hong Kong OSM export 2026-05-05","confidence":78},{"id":"hotosm-nodes-11118559990","name":"兰花溪","type":"attraction","address":"景點 / 文化設施","lat":22.56845,"lng":114.227724,"aliases":[],"source":"HOTOSM Hong Kong OSM export 2026-05-05","confidence":78},{"id":"hotosm-ways_poly-1193058435","name":"加多近街海濱長廊","type":"attraction","address":"景點 / 文化設施","lat":22.282957,"lng":114.124396,"aliases":["加多近街海濱長廊 Cadogan Street Promenade","Cadogan Street Promenade"],"source":"HOTOSM Hong Kong OSM export 2026-05-05","confidence":78},{"id":"hotosm-ways_poly-1430129474","name":"加来·酒店","type":"attraction","address":"景點 / 文化設施","lat":22.52269,"lng":114.054074,"aliases":["calais"],"source":"HOTOSM Hong Kong OSM export 2026-05-05","confidence":78},{"id":"hotosm-nodes-4969719821","name":"加拿大酒店","type":"attraction","address":"36-44 彌敦道 Nathan Road","lat":22.296519,"lng":114.172597,"aliases":["加拿大酒店 Canada Hotel","Canada Hotel"],"source":"HOTOSM Hong Kong OSM export 2026-05-05","confidence":78},{"id":"hotosm-nodes-9610271536","name":"包羅萬象","type":"attraction","address":"景點 / 文化設施","lat":22.319433,"lng":114.209008,"aliases":[],"source":"HOTOSM Hong Kong OSM export 2026-05-05","confidence":78},{"id":"hotosm-nodes-3799485140","name":"北大刀屻觀景臺","type":"attraction","address":"景點 / 文化設施","lat":22.467539,"lng":114.129137,"aliases":["北大刀屻觀景臺 Pak Tai To Yan Viewing Point","Pak Tai To Yan Viewing Point"],"source":"HOTOSM Hong Kong OSM export 2026-05-05","confidence":78},{"id":"hotosm-ways_poly-296724426","name":"北角海逸酒店","type":"attraction","address":"665 King's Road","lat":22.291572,"lng":114.208727,"aliases":["北角海逸酒店 Harbour Plaza North Point","Harbour Plaza North Point"],"source":"HOTOSM Hong Kong OSM export 2026-05-05","confidence":78},{"id":"hotosm-ways_poly-427345023","name":"北角M1酒店","type":"attraction","address":"112 春秧街 Chun Yeung Street","lat":22.291186,"lng":114.19816,"aliases":["北角M1酒店 M1 Hotel North Point","M1 Hotel North Point"],"source":"HOTOSM Hong Kong OSM export 2026-05-05","confidence":78},{"id":"hotosm-nodes-7442264589","name":"北區公園辦事處","type":"attraction","address":"景點 / 文化設施","lat":22.498539,"lng":114.133906,"aliases":["北區公園辦事處 North District Park Office","North District Park Office"],"source":"HOTOSM Hong Kong OSM export 2026-05-05","confidence":78},{"id":"hotosm-nodes-5582518324","name":"北象限浮標","type":"attraction","address":"景點 / 文化設施","lat":22.284197,"lng":114.129592,"aliases":["北象限浮標 Cardinal Mark (North)","Cardinal Mark (North)"],"source":"HOTOSM Hong Kong OSM export 2026-05-05","confidence":78},{"id":"hotosm-nodes-4468060041","name":"北潭凹營地","type":"attraction","address":"景點 / 文化設施","lat":22.42332,"lng":114.336075,"aliases":["北潭凹營地 Pak Tam Au Campsite","Pak Tam Au Campsite"],"source":"HOTOSM Hong Kong OSM export 2026-05-05","confidence":78},{"id":"hotosm-nodes-4684613789","name":"北潭石","type":"attraction","address":"景點 / 文化設施","lat":22.416831,"lng":114.317138,"aliases":[],"source":"HOTOSM Hong Kong OSM export 2026-05-05","confidence":78},{"id":"hotosm-ways_poly-1221686214","name":"北潭涌燒烤區一號場","type":"attraction","address":"景點 / 文化設施","lat":22.396633,"lng":114.318293,"aliases":["北潭涌燒烤區一號場 Pak Tam Chung Barbecue Area Site 1","Pak Tam Chung Barbecue Area Site 1"],"source":"HOTOSM Hong Kong OSM export 2026-05-05","confidence":78},{"id":"hotosm-ways_poly-1221701960","name":"北潭涌燒烤區二號場","type":"attraction","address":"景點 / 文化設施","lat":22.398413,"lng":114.31861,"aliases":["北潭涌燒烤區二號場 Pak Tam Chung Barbecue Area Site 2","Pak Tam Chung Barbecue Area Site 2"],"source":"HOTOSM Hong Kong OSM export 2026-05-05","confidence":78},{"id":"hotosm-ways_poly-1215941707","name":"北潭涌燒烤區三號場","type":"attraction","address":"景點 / 文化設施","lat":22.399526,"lng":114.319175,"aliases":["北潭涌燒烤區三號場 Pak Tam Chung Barbecue Area Site 3","Pak Tam Chung Barbecue Area Site 3"],"source":"HOTOSM Hong Kong OSM export 2026-05-05","confidence":78},{"id":"hotosm-nodes-1178849911","name":"北潭涌燒烤區六號場","type":"attraction","address":"景點 / 文化設施","lat":22.398848,"lng":114.322555,"aliases":["北潭涌燒烤區六號場 Pak Tam Chung Barbecue Area Site 6","Pak Tam Chung Barbecue Area Site 6"],"source":"HOTOSM Hong Kong OSM export 2026-05-05","confidence":78},{"id":"hotosm-ways_poly-1342631133","name":"史諾比開心世界","type":"attraction","address":"景點 / 文化設施","lat":22.381996,"lng":114.189279,"aliases":["史諾比開心世界 Snoopy's World","Snoopy's World"],"source":"HOTOSM Hong Kong OSM export 2026-05-05","confidence":78},{"id":"hotosm-nodes-1095691262","name":"司徒拔道眺望處","type":"attraction","address":"景點 / 文化設施","lat":22.27031,"lng":114.175848,"aliases":["司徒拔道眺望處 Stubbs Road Lookout","Stubbs Road Lookout"],"source":"HOTOSM Hong Kong OSM export 2026-05-05","confidence":78},{"id":"hotosm-nodes-6485117114","name":"四川宾馆","type":"attraction","address":"景點 / 文化設施","lat":22.551383,"lng":114.090059,"aliases":[],"source":"HOTOSM Hong Kong OSM export 2026-05-05","confidence":78},{"id":"hotosm-ways_poly-148554935","name":"四季酒店","type":"attraction","address":"8 金融街 Finance Street","lat":22.286624,"lng":114.156631,"aliases":["四季酒店 Four Seasons Hotel","Four Seasons Hotel"],"source":"HOTOSM Hong Kong OSM export 2026-05-05","confidence":78},{"id":"hotosm-nodes-4395636474","name":"四柱擎天 Post Office Pillars","type":"attraction","address":"景點 / 文化設施","lat":22.430304,"lng":114.117461,"aliases":["Post Office Pillars"],"source":"HOTOSM Hong Kong OSM export 2026-05-05","confidence":78},{"id":"hotosm-nodes-5265896248","name":"四條柱","type":"attraction","address":"景點 / 文化設施","lat":22.418247,"lng":114.202975,"aliases":["四條柱 The Four Pillars","The Four Pillars"],"source":"HOTOSM Hong Kong OSM export 2026-05-05","confidence":78},{"id":"hotosm-nodes-5265896254","name":"四條柱","type":"attraction","address":"景點 / 文化設施","lat":22.418193,"lng":114.203089,"aliases":["四條柱 The Four Pillars","The Four Pillars"],"source":"HOTOSM Hong Kong OSM export 2026-05-05","confidence":78},{"id":"hotosm-nodes-9329732029","name":"左右門神","type":"attraction","address":"景點 / 文化設施","lat":22.380671,"lng":113.997436,"aliases":[],"source":"HOTOSM Hong Kong OSM export 2026-05-05","confidence":78},{"id":"hotosm-ways_poly-111785053","name":"市鎮會堂","type":"attraction","address":"景點 / 文化設施","lat":22.312482,"lng":114.043816,"aliases":["市鎮會堂 City Hall","City Hall"],"source":"HOTOSM Hong Kong OSM export 2026-05-05","confidence":78},{"id":"hotosm-ways_poly-466861762","name":"本舍","type":"attraction","address":"10 荔盈街 Lai Ying Street","lat":22.326684,"lng":114.149363,"aliases":["TOWNPLACE WEST KOWLOON"],"source":"HOTOSM Hong Kong OSM export 2026-05-05","confidence":78},{"id":"hotosm-ways_poly-1420175108","name":"民安隊圓墩營","type":"attraction","address":"景點 / 文化設施","lat":22.371005,"lng":114.044916,"aliases":["民安隊圓墩營 CAS Yuen Tun Camp","CAS Yuen Tun Camp"],"source":"HOTOSM Hong Kong OSM export 2026-05-05","confidence":78},{"id":"hotosm-nodes-12228195924","name":"民政事務總/區議會署告示板","type":"attraction","address":"景點 / 文化設施","lat":22.367756,"lng":114.259274,"aliases":["Home Affairs Department/District Council Notice Board"],"source":"HOTOSM Hong Kong OSM export 2026-05-05","confidence":78},{"id":"hotosm-nodes-7893330412","name":"永和號 Wing Woo Grocery","type":"attraction","address":"景點 / 文化設施","lat":22.283452,"lng":114.154065,"aliases":["Wing Woo Grocery"],"source":"HOTOSM Hong Kong OSM export 2026-05-05","confidence":78},{"id":"hotosm-ways_poly-261874498","name":"永倫800酒店","type":"attraction","address":"1 青衣路 Tsing Yi Road","lat":22.34283,"lng":114.11047,"aliases":["永倫800酒店 Winland 800 Hotel","Winland 800 Hotel"],"source":"HOTOSM Hong Kong OSM export 2026-05-05","confidence":78},{"id":"hotosm-nodes-10239939674","name":"瓦窰","type":"attraction","address":"景點 / 文化設施","lat":22.541923,"lng":114.137149,"aliases":[],"source":"HOTOSM Hong Kong OSM export 2026-05-05","confidence":78},{"id":"hotosm-nodes-9676311628","name":"田夫仔北越野單車徑","type":"attraction","address":"景點 / 文化設施","lat":22.396379,"lng":114.074584,"aliases":["田夫仔北越野單車徑 Tin Fu Tsai North Mountain Bike Trail","Tin Fu Tsai North Mountain Bike Trail"],"source":"HOTOSM Hong Kong OSM export 2026-05-05","confidence":78},{"id":"hotosm-nodes-9676489789","name":"田夫仔營地","type":"attraction","address":"景點 / 文化設施","lat":22.390421,"lng":114.065767,"aliases":["田夫仔營地 Tin Fu Tsai Campsite","Tin Fu Tsai Campsite"],"source":"HOTOSM Hong Kong OSM export 2026-05-05","confidence":78},{"id":"hotosm-nodes-1958069882","name":"田夫仔營地","type":"attraction","address":"景點 / 文化設施","lat":22.390104,"lng":114.066018,"aliases":["田夫仔營地 Tin Fu Tsai Campsite","Tin Fu Tsai Campsite"],"source":"HOTOSM Hong Kong OSM export 2026-05-05","confidence":78},{"id":"hotosm-ways_poly-1052916892","name":"田夫仔營地","type":"attraction","address":"景點 / 文化設施","lat":22.390023,"lng":114.066186,"aliases":["田夫仔營地 Tin Fu Tsai Campsite","Tin Fu Tsai Campsite"],"source":"HOTOSM Hong Kong OSM export 2026-05-05","confidence":78},{"id":"hotosm-nodes-8699779017","name":"白沙洲","type":"attraction","address":"景點 / 文化設施","lat":22.376212,"lng":114.28734,"aliases":[],"source":"HOTOSM Hong Kong OSM export 2026-05-05","confidence":78},{"id":"hotosm-ways_poly-795627786","name":"白沙澳青年旅舍","type":"attraction","address":"景點 / 文化設施","lat":22.451015,"lng":114.322412,"aliases":["白沙澳青年旅舍 Pak Sha O Youth Hostel","Pak Sha O Youth Hostel"],"source":"HOTOSM Hong Kong OSM export 2026-05-05","confidence":78},{"id":"hotosm-nodes-13034053635","name":"白角天書壁","type":"attraction","address":"景點 / 文化設施","lat":22.210898,"lng":113.878433,"aliases":["白角天書壁 Pak Kok Heavenly Book Wall","Pak Kok Heavenly Book Wall"],"source":"HOTOSM Hong Kong OSM export 2026-05-05","confidence":78},{"id":"hotosm-nodes-11286230863","name":"白虎沖溝","type":"attraction","address":"景點 / 文化設施","lat":22.402749,"lng":114.044407,"aliases":["白虎沖溝 White Tiger Gully","White Tiger Gully"],"source":"HOTOSM Hong Kong OSM export 2026-05-05","confidence":78},{"id":"hotosm-nodes-1968919691","name":"白富田營地","type":"attraction","address":"景點 / 文化設施","lat":22.251973,"lng":113.993864,"aliases":["白富田營地 Pak Fu Tin Campsite","Pak Fu Tin Campsite"],"source":"HOTOSM Hong Kong OSM export 2026-05-05","confidence":78},{"id":"hotosm-ways_poly-290795427","name":"白普理堂青年旅社","type":"attraction","address":"景點 / 文化設施","lat":22.42442,"lng":114.354403,"aliases":["白普理堂青年旅社 Bradbury Hall Youth Hostel","Bradbury Hall Youth Hostel"],"source":"HOTOSM Hong Kong OSM export 2026-05-05","confidence":78},{"id":"hotosm-ways_poly-135269236","name":"白普理賽馬會青年旅舍","type":"attraction","address":"景點 / 文化設施","lat":22.468897,"lng":114.233468,"aliases":["白普理賽馬會青年旅舍 Bradbury Jockey Club Youth Hostel","Bradbury Jockey Club Youth Hostel"],"source":"HOTOSM Hong Kong OSM export 2026-05-05","confidence":78},{"id":"hotosm-ways_poly-784769692","name":"白樓","type":"attraction","address":"401 青山公路－汀九段 Castle Peak Road – Ting Kau","lat":22.364096,"lng":114.070376,"aliases":["白樓 Homi Villa","Homi Villa"],"source":"HOTOSM Hong Kong OSM export 2026-05-05","confidence":78},{"id":"hotosm-nodes-1983396730","name":"白臘營地","type":"attraction","address":"景點 / 文化設施","lat":22.358788,"lng":114.364795,"aliases":["白臘營地 Pak Lap Campsite","Pak Lap Campsite"],"source":"HOTOSM Hong Kong OSM export 2026-05-05","confidence":78},{"id":"hotosm-ways_poly-109728629","name":"石室巖","type":"attraction","address":"景點 / 文化設施","lat":22.257819,"lng":114.348044,"aliases":["石室巖 Stone Chamber","Stone Chamber"],"source":"HOTOSM Hong Kong OSM export 2026-05-05","confidence":78},{"id":"hotosm-ways_poly-257251478","name":"石梨貝水塘2號燒烤場","type":"attraction","address":"景點 / 文化設施","lat":22.349769,"lng":114.148725,"aliases":["石梨貝水塘2號燒烤場 Shek Lei Pui Reservoir BBQ Site No.2","Shek Lei Pui Reservoir BBQ Site No.2"],"source":"HOTOSM Hong Kong OSM export 2026-05-05","confidence":78},{"id":"hotosm-ways_poly-1079230869","name":"石梨貝水塘燒烤區三號場","type":"attraction","address":"景點 / 文化設施","lat":22.349541,"lng":114.146132,"aliases":["石梨貝水塘燒烤區三號場 Shek Lei Pui Reservoir Barbecue Area Site 3","Shek Lei Pui Reservoir Barbecue Area Site 3"],"source":"HOTOSM Hong Kong OSM export 2026-05-05","confidence":78},{"id":"hotosm-nodes-6195856205","name":"石窗塔","type":"attraction","address":"景點 / 文化設施","lat":22.249575,"lng":113.9186,"aliases":[],"source":"HOTOSM Hong Kong OSM export 2026-05-05","confidence":78},{"id":"hotosm-nodes-1235977594","name":"石壁石刻","type":"attraction","address":"景點 / 文化設施","lat":22.224407,"lng":113.896574,"aliases":["石壁石刻 Rock Carving at Shek Pik","Rock Carving at Shek Pik"],"source":"HOTOSM Hong Kong OSM export 2026-05-05","confidence":78},{"id":"hotosm-nodes-1967306835","name":"石壁營地","type":"attraction","address":"景點 / 文化設施","lat":22.228931,"lng":113.889726,"aliases":["石壁營地 Shek Pik Campsite","Shek Pik Campsite"],"source":"HOTOSM Hong Kong OSM export 2026-05-05","confidence":78},{"id":"hotosm-ways_poly-97700189","name":"石澳道瞭望處","type":"attraction","address":"景點 / 文化設施","lat":22.228457,"lng":114.239252,"aliases":["石澳道瞭望處 Shek O Road Lookout","Shek O Road Lookout"],"source":"HOTOSM Hong Kong OSM export 2026-05-05","confidence":78},{"id":"hotosm-nodes-12229498218","name":"石龍拱觀景台","type":"attraction","address":"景點 / 文化設施","lat":22.378559,"lng":114.083311,"aliases":["石龍拱觀景台 Shek Lung Kung Viewing Point","Shek Lung Kung Viewing Point"],"source":"HOTOSM Hong Kong OSM export 2026-05-05","confidence":78},{"id":"hotosm-nodes-1252436998","name":"石欖洲營地","type":"attraction","address":"景點 / 文化設施","lat":22.213873,"lng":113.903106,"aliases":["石欖洲營地 Shek Lam Chau Campsite","Shek Lam Chau Campsite"],"source":"HOTOSM Hong Kong OSM export 2026-05-05","confidence":78},{"id":"hotosm-nodes-8735570017","name":"禾田喜山種值園","type":"attraction","address":"沙頭角沙頭角公路石涌凹段","lat":22.540249,"lng":114.209886,"aliases":["Wadakiyama Plantation"],"source":"HOTOSM Hong Kong OSM export 2026-05-05","confidence":78},{"id":"hotosm-ways_poly-746293667","name":"立方國際青年公寓","type":"attraction","address":"57-59 大南街 Tai Nan Street","lat":22.324822,"lng":114.166111,"aliases":["立方國際青年公寓 M3 International Youth Apartment","M3 International Youth Apartment"],"source":"HOTOSM Hong Kong OSM export 2026-05-05","confidence":78},{"id":"hotosm-ways_poly-1239366739","name":"邓小平画像","type":"attraction","address":"景點 / 文化設施","lat":22.544246,"lng":114.098819,"aliases":["Portrait of Deng Xiaoping"],"source":"HOTOSM Hong Kong OSM export 2026-05-05","confidence":78},{"id":"hotosm-ways_poly-239574716","name":"邓小平画像广场","type":"attraction","address":"景點 / 文化設施","lat":22.544066,"lng":114.098992,"aliases":[],"source":"HOTOSM Hong Kong OSM export 2026-05-05","confidence":78},{"id":"hotosm-ways_poly-685053534","name":"长安大酒店","type":"attraction","address":"1133 深南东路","lat":22.54746,"lng":114.126907,"aliases":["Chang An Hotel"],"source":"HOTOSM Hong Kong OSM export 2026-05-05","confidence":78},{"id":"hotosm-ways_poly-1413953944","name":"长城大酒店","type":"attraction","address":"景點 / 文化設施","lat":22.552811,"lng":114.101749,"aliases":[],"source":"HOTOSM Hong Kong OSM export 2026-05-05","confidence":78},{"id":"hotosm-ways_poly-1072300298","name":"仲門","type":"attraction","address":"景點 / 文化設施","lat":22.419487,"lng":114.205381,"aliases":["仲門 The Gate","The Gate"],"source":"HOTOSM Hong Kong OSM export 2026-05-05","confidence":78},{"id":"hotosm-nodes-4375047986","name":"休閑小窩","type":"attraction","address":"53-55 海防道 Haiphong Road","lat":22.298029,"lng":114.171903,"aliases":["休閑小窩 Urban Pack Hostel","Urban Pack Hostel"],"source":"HOTOSM Hong Kong OSM export 2026-05-05","confidence":78},{"id":"hotosm-nodes-8483293285","name":"全季酒店","type":"attraction","address":"景點 / 文化設施","lat":22.526399,"lng":114.058531,"aliases":["Ji Hotel"],"source":"HOTOSM Hong Kong OSM export 2026-05-05","confidence":78},{"id":"hotosm-ways_poly-430119031","name":"全季酒店","type":"attraction","address":"4014 华强北路","lat":22.553462,"lng":114.082337,"aliases":["Ji Hotel"],"source":"HOTOSM Hong Kong OSM export 2026-05-05","confidence":78},{"id":"hotosm-nodes-7921977940","name":"共振之靈－五 Resonance Aura V: Clockwork","type":"attraction","address":"景點 / 文化設施","lat":22.312202,"lng":114.221636,"aliases":[],"source":"HOTOSM Hong Kong OSM export 2026-05-05","confidence":78},{"id":"hotosm-ways_poly-527641715","name":"兴华宾馆","type":"attraction","address":"景點 / 文化設施","lat":22.543973,"lng":114.087133,"aliases":[],"source":"HOTOSM Hong Kong OSM export 2026-05-05","confidence":78},{"id":"hotosm-nodes-7921977939","name":"列印觀塘","type":"attraction","address":"景點 / 文化設施","lat":22.311922,"lng":114.221861,"aliases":["列印觀塘 Printing Kwun Tong","Printing Kwun Tong"],"source":"HOTOSM Hong Kong OSM export 2026-05-05","confidence":78},{"id":"hotosm-nodes-6849164812","name":"匡智梨木樹宿舍","type":"attraction","address":"景點 / 文化設施","lat":22.378988,"lng":114.133678,"aliases":["匡智梨木樹宿舍 Hong Chi Lei Muk Shue Hostel","Hong Chi Lei Muk Shue Hostel"],"source":"HOTOSM Hong Kong OSM export 2026-05-05","confidence":78},{"id":"hotosm-ways_poly-1262090514","name":"华安国际大酒店","type":"attraction","address":"2001 宝安南路","lat":22.546611,"lng":114.105411,"aliases":["Huaan International Hotel"],"source":"HOTOSM Hong Kong OSM export 2026-05-05","confidence":78},{"id":"hotosm-nodes-3399132889","name":"华侨酒店","type":"attraction","address":"景點 / 文化設施","lat":22.5315,"lng":114.111139,"aliases":[],"source":"HOTOSM Hong Kong OSM export 2026-05-05","confidence":78},{"id":"hotosm-ways_poly-531933756","name":"华旺商务宾馆","type":"attraction","address":"景點 / 文化設施","lat":22.545226,"lng":114.114473,"aliases":[],"source":"HOTOSM Hong Kong OSM export 2026-05-05","confidence":78},{"id":"hotosm-ways_poly-488896097","name":"华强广场酒店","type":"attraction","address":"景點 / 文化設施","lat":22.546589,"lng":114.080865,"aliases":["Huaqiang Plaza Hotel"],"source":"HOTOSM Hong Kong OSM export 2026-05-05","confidence":78},{"id":"hotosm-nodes-2897473429","name":"华强北","type":"attraction","address":"景點 / 文化設施","lat":22.549269,"lng":114.084143,"aliases":["Huaqiang North"],"source":"HOTOSM Hong Kong OSM export 2026-05-05","confidence":78},{"id":"hotosm-nodes-5342215634","name":"印度木製小牛擺設","type":"attraction","address":"景點 / 文化設施","lat":22.307897,"lng":114.038111,"aliases":["印度木製小牛擺設 Indian Nandi Wooden Temple Toys","Indian Nandi Wooden Temple Toys"],"source":"HOTOSM Hong Kong OSM export 2026-05-05","confidence":78},{"id":"hotosm-nodes-11811598946","name":"印洲塘觀景台","type":"attraction","address":"景點 / 文化設施","lat":22.523109,"lng":114.283882,"aliases":["印洲塘觀景台 Double Haven Viewing Point","Double Haven Viewing Point"],"source":"HOTOSM Hong Kong OSM export 2026-05-05","confidence":78},{"id":"hotosm-ways_poly-230177223","name":"合一亭","type":"attraction","address":"景點 / 文化設施","lat":22.421595,"lng":114.209928,"aliases":["合一亭 Pavilion of Harmony","Pavilion of Harmony"],"source":"HOTOSM Hong Kong OSM export 2026-05-05","confidence":78},{"id":"hotosm-nodes-6319819608","name":"合力保護漁業資源，禁止破壞性方法捕魚","type":"attraction","address":"景點 / 文化設施","lat":22.448816,"lng":114.177015,"aliases":["Destructive Fishing Prohibited"],"source":"HOTOSM Hong Kong OSM export 2026-05-05","confidence":78},{"id":"hotosm-relations-19022419","name":"合和酒店","type":"attraction","address":"15 堅尼地道 Kennedy Road","lat":22.27498,"lng":114.170706,"aliases":["合和酒店 Hopewell Hotel","Hopewell Hotel"],"source":"HOTOSM Hong Kong OSM export 2026-05-05","confidence":78},{"id":"hotosm-nodes-3440993706","name":"吉澳地質教育中心","type":"attraction","address":"景點 / 文化設施","lat":22.548119,"lng":114.291607,"aliases":["吉澳地質教育中心 Kat O Geoheritage Centre","Kat O Geoheritage Centre"],"source":"HOTOSM Hong Kong OSM export 2026-05-05","confidence":78},{"id":"hotosm-ways_poly-429695059","name":"名人酒店","type":"attraction","address":"37 金巴倫道 Cumberland Road","lat":22.330261,"lng":114.176784,"aliases":["名人酒店 Personage Hotel","Personage Hotel"],"source":"HOTOSM Hong Kong OSM export 2026-05-05","confidence":78},{"id":"hotosm-nodes-349915012","name":"名都酒店","type":"attraction","address":"景點 / 文化設施","lat":22.555074,"lng":114.124096,"aliases":["Mingdu Hotel"],"source":"HOTOSM Hong Kong OSM export 2026-05-05","confidence":78},{"id":"hotosm-ways_poly-761644471","name":"名樂漁莊","type":"attraction","address":"景點 / 文化設施","lat":22.459428,"lng":114.009529,"aliases":["名樂漁莊 Mingle Farm","Mingle Farm"],"source":"HOTOSM Hong Kong OSM export 2026-05-05","confidence":78},{"id":"hotosm-nodes-5792489552","name":"吐露角觀景臺","type":"attraction","address":"景點 / 文化設施","lat":22.440964,"lng":114.185483,"aliases":["吐露角觀景臺 Tolo Harbour Viewing Terrace","Tolo Harbour Viewing Terrace"],"source":"HOTOSM Hong Kong OSM export 2026-05-05","confidence":78},{"id":"hotosm-ways_poly-64601041","name":"地王大厦","type":"attraction","address":"5002号 深南东路","lat":22.545341,"lng":114.105523,"aliases":["Shun Hing Square"],"source":"HOTOSM Hong Kong OSM export 2026-05-05","confidence":78},{"id":"hotosm-nodes-350322950","name":"地王观光·深港之窗","type":"attraction","address":"5002号 深南东路","lat":22.545141,"lng":114.105598,"aliases":["Meridian View Center"],"source":"HOTOSM Hong Kong OSM export 2026-05-05","confidence":78},{"id":"hotosm-nodes-12228195923","name":"地政總署告示板","type":"attraction","address":"景點 / 文化設施","lat":22.367775,"lng":114.259213,"aliases":["Lands Department Notice Board"],"source":"HOTOSM Hong Kong OSM export 2026-05-05","confidence":78},{"id":"hotosm-ways_poly-266353251","name":"如心銅鑼灣海景酒店","type":"attraction","address":"18 King's Road","lat":22.283255,"lng":114.192861,"aliases":["如心銅鑼灣海景酒店 L'hotel Causeway Bay Harbour View Hong Kong","L'hotel Causeway Bay Harbour View Hong Kong"],"source":"HOTOSM Hong Kong OSM export 2026-05-05","confidence":78},{"id":"hotosm-nodes-349915011","name":"如家酒店","type":"attraction","address":"景點 / 文化設施","lat":22.555687,"lng":114.123511,"aliases":["Home Inn"],"source":"HOTOSM Hong Kong OSM export 2026-05-05","confidence":78},{"id":"hotosm-ways_poly-476035685","name":"如家酒店","type":"attraction","address":"2081 深南中路","lat":22.542798,"lng":114.082896,"aliases":["如家和颐酒店","Home Inn"],"source":"HOTOSM Hong Kong OSM export 2026-05-05","confidence":78},{"id":"hotosm-nodes-11914347515","name":"安盛創夢館","type":"attraction","address":"9 海映路 Hoi Ying Road","lat":22.427027,"lng":114.264738,"aliases":["安盛創夢館 AXA Dreamland","AXA Dreamland"],"source":"HOTOSM Hong Kong OSM export 2026-05-05","confidence":78},{"id":"hotosm-ways_poly-254652547","name":"尖沙咀一尚酒店","type":"attraction","address":"21 寶勒巷 Prat Avenue","lat":22.2985,"lng":114.174991,"aliases":["尖沙咀一尚酒店 Dash Living on Prat","Dash Living on Prat"],"source":"HOTOSM Hong Kong OSM export 2026-05-05","confidence":78},{"id":"hotosm-ways_poly-605420842","name":"尖沙咀海濱花園","type":"attraction","address":"景點 / 文化設施","lat":22.293465,"lng":114.171019,"aliases":["尖沙咀海濱花園 Tsim Sha Tsui Promenade","Tsim Sha Tsui Promenade"],"source":"HOTOSM Hong Kong OSM export 2026-05-05","confidence":78},{"id":"hotosm-ways_poly-205639083","name":"尖鼻咀觀景台","type":"attraction","address":"景點 / 文化設施","lat":22.484871,"lng":114.008799,"aliases":["尖鼻咀觀景台 Tsim Bei Tsui Lookout","Tsim Bei Tsui Lookout"],"source":"HOTOSM Hong Kong OSM export 2026-05-05","confidence":78},{"id":"hotosm-nodes-11648651694","name":"庄玉君艺术馆","type":"attraction","address":"景點 / 文化設施","lat":22.505159,"lng":114.048787,"aliases":[],"source":"HOTOSM Hong Kong OSM export 2026-05-05","confidence":78},{"id":"hotosm-ways_poly-744359106","name":"旭逸酒店·荃灣","type":"attraction","address":"15-19 圳邊街 Chun Pin Street","lat":22.368354,"lng":114.13728,"aliases":["旭逸酒店·荃灣 Hotel Ease · Tsuen Wan","Hotel Ease · Tsuen Wan"],"source":"HOTOSM Hong Kong OSM export 2026-05-05","confidence":78},{"id":"hotosm-ways_poly-753630393","name":"旭逸雅捷酒店·荃灣","type":"attraction","address":"景點 / 文化設施","lat":22.359877,"lng":114.131784,"aliases":["旭逸雅捷酒店·荃灣 Hotel Ease Access·Tsuen Wan","Hotel Ease Access·Tsuen Wan"],"source":"HOTOSM Hong Kong OSM export 2026-05-05","confidence":78},{"id":"hotosm-ways_poly-1245453300","name":"旭逸雅捷酒店·荔枝角","type":"attraction","address":"42A 永康街 Wing Hong Street","lat":22.33988,"lng":114.151425,"aliases":["旭逸雅捷酒店·荔枝角 Hotel Ease Access·Lai Chi Kok","Hotel Ease Access·Lai Chi Kok"],"source":"HOTOSM Hong Kong OSM export 2026-05-05","confidence":78},{"id":"hotosm-ways_poly-359006522","name":"欢乐海岸水秀剧场","type":"attraction","address":"景點 / 文化設施","lat":22.524901,"lng":113.985191,"aliases":["OCT Harbour Water Show Theater"],"source":"HOTOSM Hong Kong OSM export 2026-05-05","confidence":78},{"id":"hotosm-nodes-4644061742","name":"此路不通牌","type":"attraction","address":"景點 / 文化設施","lat":22.400532,"lng":114.016857,"aliases":[],"source":"HOTOSM Hong Kong OSM export 2026-05-05","confidence":78},{"id":"hotosm-nodes-2140028410","name":"灰窰","type":"attraction","address":"景點 / 文化設施","lat":22.393239,"lng":114.321359,"aliases":["灰窰 Pottery kiln","Pottery kiln"],"source":"HOTOSM Hong Kong OSM export 2026-05-05","confidence":78},{"id":"hotosm-ways_poly-693050555","name":"百樂酒店","type":"attraction","address":"61-65 漆咸道南 Chatham Road South","lat":22.299675,"lng":114.175534,"aliases":["百樂酒店 Park Hotel","Park Hotel"],"source":"HOTOSM Hong Kong OSM export 2026-05-05","confidence":78},{"id":"hotosm-ways_poly-1058420040","name":"竹翠公園","type":"attraction","address":"景點 / 文化設施","lat":22.302433,"lng":114.155767,"aliases":["竹翠公園 Wonderland","Wonderland"],"source":"HOTOSM Hong Kong OSM export 2026-05-05","confidence":78},{"id":"hotosm-nodes-5342215637","name":"米奇、米妮及唐老鴨的皮影木偶","type":"attraction","address":"景點 / 文化設施","lat":22.307281,"lng":114.03772,"aliases":["米奇、米妮及唐老鴨的皮影木偶 Shadow Puppets of Micky, Minnie and Donald","Shadow Puppets of Micky, Minnie and Donald"],"source":"HOTOSM Hong Kong OSM export 2026-05-05","confidence":78},{"id":"hotosm-ways_poly-113194754","name":"米埔自然保護區教育中心","type":"attraction","address":"景點 / 文化設施","lat":22.487842,"lng":114.041881,"aliases":["米埔自然保護區教育中心 Mai Po Nature Reserve Education Centre","Mai Po Nature Reserve Education Centre"],"source":"HOTOSM Hong Kong OSM export 2026-05-05","confidence":78},{"id":"hotosm-nodes-10103509351","name":"米高積遜銅像","type":"attraction","address":"景點 / 文化設施","lat":22.387831,"lng":113.963424,"aliases":["米高積遜銅像 Michael Jackson Statue","Michael Jackson Statue"],"source":"HOTOSM Hong Kong OSM export 2026-05-05","confidence":78},{"id":"hotosm-nodes-3131306510","name":"老虎頭觀景台（西北）","type":"attraction","address":"景點 / 文化設施","lat":22.299608,"lng":114.000067,"aliases":["老虎頭觀景台（西北） Lo Fu Tau Viewing Point (NW)","Lo Fu Tau Viewing Point (NW)"],"source":"HOTOSM Hong Kong OSM export 2026-05-05","confidence":78},{"id":"hotosm-nodes-3131306511","name":"老虎頭觀景台（東南）","type":"attraction","address":"景點 / 文化設施","lat":22.299538,"lng":114.000206,"aliases":["老虎頭觀景台（東南） Lo Fu Tau Viewing Point (SE)","Lo Fu Tau Viewing Point (SE)"],"source":"HOTOSM Hong Kong OSM export 2026-05-05","confidence":78},{"id":"hotosm-nodes-9516744377","name":"老鼠石","type":"attraction","address":"景點 / 文化設施","lat":22.468464,"lng":114.077382,"aliases":[],"source":"HOTOSM Hong Kong OSM export 2026-05-05","confidence":78},{"id":"hotosm-ways_poly-549702816","name":"自由空間","type":"attraction","address":"景點 / 文化設施","lat":22.299893,"lng":114.156399,"aliases":["自由空間 Freespace","Freespace"],"source":"HOTOSM Hong Kong OSM export 2026-05-05","confidence":78},{"id":"hotosm-nodes-4537843192","name":"自殺崖","type":"attraction","address":"景點 / 文化設施","lat":22.338342,"lng":114.223074,"aliases":["自殺崖 Suicide Wall","Suicide Wall"],"source":"HOTOSM Hong Kong OSM export 2026-05-05","confidence":78},{"id":"hotosm-nodes-6329907292","name":"自然生態花園 Ecological Garden","type":"attraction","address":"景點 / 文化設施","lat":22.45028,"lng":114.178509,"aliases":[],"source":"HOTOSM Hong Kong OSM export 2026-05-05","confidence":78},{"id":"hotosm-nodes-5342215625","name":"艾碼拉民送斗蓬","type":"attraction","address":"景點 / 文化設施","lat":22.307019,"lng":114.03876,"aliases":["艾碼拉民送斗蓬 Aymara Culture Poncho","Aymara Culture Poncho"],"source":"HOTOSM Hong Kong OSM export 2026-05-05","confidence":78},{"id":"hotosm-ways_poly-1078798719","name":"西沙路燒烤區五號場","type":"attraction","address":"景點 / 文化設施","lat":22.405173,"lng":114.279257,"aliases":["西沙路燒烤區五號場 Sai Sha Road BBQ Area Site 5","Sai Sha Road BBQ Area Site 5"],"source":"HOTOSM Hong Kong OSM export 2026-05-05","confidence":78},{"id":"hotosm-ways_poly-1223354268","name":"西沙路燒烤區四號場","type":"attraction","address":"景點 / 文化設施","lat":22.405594,"lng":114.277209,"aliases":["西沙路燒烤區四號場 Sai Sha Road BBQ Area Site 4","Sai Sha Road BBQ Area Site 4"],"source":"HOTOSM Hong Kong OSM export 2026-05-05","confidence":78},{"id":"hotosm-nodes-2166419789","name":"西沙綠田園","type":"attraction","address":"景點 / 文化設施","lat":22.427999,"lng":114.261029,"aliases":["西沙綠田園 Sai Sha Garden Farm","Sai Sha Garden Farm"],"source":"HOTOSM Hong Kong OSM export 2026-05-05","confidence":78},{"id":"hotosm-ways_poly-540115812","name":"西城六十","type":"attraction","address":"60 德輔道西 Des Voeux Road West","lat":22.287509,"lng":114.146584,"aliases":["西城六十 60 West Hotel","60 West Hotel"],"source":"HOTOSM Hong Kong OSM export 2026-05-05","confidence":78},{"id":"hotosm-nodes-1178848754","name":"西貢郊野公園遊客中心","type":"attraction","address":"景點 / 文化設施","lat":22.397837,"lng":114.319569,"aliases":["西貢郊野公園遊客中心 Sai Kung Country Park Visitors Centre","Sai Kung Country Park Visitors Centre"],"source":"HOTOSM Hong Kong OSM export 2026-05-05","confidence":78},{"id":"hotosm-nodes-9763327865","name":"西貢區","type":"attraction","address":"景點 / 文化設施","lat":22.334365,"lng":114.227048,"aliases":["西貢區 Sai Kung District","Sai Kung District"],"source":"HOTOSM Hong Kong OSM export 2026-05-05","confidence":78},{"id":"hotosm-nodes-4598859647","name":"西貢清水灣牛尾海觀景圖","type":"attraction","address":"景點 / 文化設施","lat":22.323533,"lng":114.26379,"aliases":["西貢清水灣牛尾海觀景圖 View of Clear Water Bay-Port Shelter","View of Clear Water Bay-Port Shelter"],"source":"HOTOSM Hong Kong OSM export 2026-05-05","confidence":78},{"id":"hotosm-nodes-4721469991","name":"西高山西崖入口","type":"attraction","address":"景點 / 文化設施","lat":22.271792,"lng":114.133385,"aliases":[],"source":"HOTOSM Hong Kong OSM export 2026-05-05","confidence":78},{"id":"hotosm-nodes-1107645826","name":"西高山觀景台","type":"attraction","address":"景點 / 文化設施","lat":22.272164,"lng":114.136257,"aliases":["西高山觀景台 Mt. High West Viewing Point","Mt. High West Viewing Point"],"source":"HOTOSM Hong Kong OSM export 2026-05-05","confidence":78},{"id":"hotosm-nodes-4721581390","name":"西高崖底","type":"attraction","address":"景點 / 文化設施","lat":22.272179,"lng":114.13405,"aliases":[],"source":"HOTOSM Hong Kong OSM export 2026-05-05","confidence":78},{"id":"hotosm-ways_poly-343471180","name":"西區公眾貨物裝卸區","type":"attraction","address":"景點 / 文化設施","lat":22.287594,"lng":114.131925,"aliases":["西區公眾貨物裝卸區 Western District Public Cargo Working Area","Western District Public Cargo Working Area"],"source":"HOTOSM Hong Kong OSM export 2026-05-05","confidence":78},{"id":"hotosm-nodes-7014126585","name":"西環鐘聲泳棚","type":"attraction","address":"景點 / 文化設施","lat":22.279846,"lng":114.117518,"aliases":["西環鐘聲泳棚 Sai Wan Swimming Shed","Sai Wan Swimming Shed"],"source":"HOTOSM Hong Kong OSM export 2026-05-05","confidence":78},{"id":"hotosm-nodes-997942104","name":"西灣營地","type":"attraction","address":"景點 / 文化設施","lat":22.399644,"lng":114.369301,"aliases":["西灣營地 Sai Wan Camp Site","Sai Wan Camp Site"],"source":"HOTOSM Hong Kong OSM export 2026-05-05","confidence":78},{"id":"hotosm-nodes-7668892785","name":"观海1","type":"attraction","address":"景點 / 文化設施","lat":22.48535,"lng":113.939111,"aliases":["海岸1","Watch the sea 1"],"source":"HOTOSM Hong Kong OSM export 2026-05-05","confidence":78},{"id":"hotosm-nodes-7668959185","name":"观海2","type":"attraction","address":"景點 / 文化設施","lat":22.483361,"lng":113.93702,"aliases":["Watch the sea 2"],"source":"HOTOSM Hong Kong OSM export 2026-05-05","confidence":78},{"id":"hotosm-nodes-7668959385","name":"观海3","type":"attraction","address":"景點 / 文化設施","lat":22.483073,"lng":113.932568,"aliases":["Watch the sea 3"],"source":"HOTOSM Hong Kong OSM export 2026-05-05","confidence":78},{"id":"hotosm-nodes-9608441514","name":"访客中心","type":"attraction","address":"景點 / 文化設施","lat":22.514038,"lng":114.036664,"aliases":[],"source":"HOTOSM Hong Kong OSM export 2026-05-05","confidence":78},{"id":"hotosm-ways_poly-1208847335","name":"伯惠酒店","type":"attraction","address":"11 東邊街 Eastern Street","lat":22.28736,"lng":114.143619,"aliases":["伯惠酒店 WE hotel","WE hotel"],"source":"HOTOSM Hong Kong OSM export 2026-05-05","confidence":78},{"id":"hotosm-nodes-3712152170","name":"佛手崖","type":"attraction","address":"景點 / 文化設施","lat":22.157818,"lng":114.25695,"aliases":["佛手崖 Palm Cliff","Palm Cliff"],"source":"HOTOSM Hong Kong OSM export 2026-05-05","confidence":78},{"id":"hotosm-ways_poly-446658012","name":"佛光寺","type":"attraction","address":"景點 / 文化設施","lat":22.368288,"lng":114.258504,"aliases":[],"source":"HOTOSM Hong Kong OSM export 2026-05-05","confidence":78},{"id":"hotosm-nodes-12692186172","name":"你與我","type":"attraction","address":"景點 / 文化設施","lat":22.321975,"lng":114.198554,"aliases":[],"source":"HOTOSM Hong Kong OSM export 2026-05-05","confidence":78},{"id":"hotosm-nodes-9333265605","name":"克頓道「維多利亞城」界石","type":"attraction","address":"景點 / 文化設施","lat":22.279091,"lng":114.137386,"aliases":["克頓道「維多利亞城」界石 'Victoria City' Boundary Stone at Hatton Road","'Victoria City' Boundary Stone at Hatton Road"],"source":"HOTOSM Hong Kong OSM export 2026-05-05","confidence":78},{"id":"hotosm-ways_poly-534474012","name":"利希慎音樂廳","type":"attraction","address":"景點 / 文化設施","lat":22.413945,"lng":114.208719,"aliases":["利希慎音樂廳 Lee Hysan Concert Hall","Lee Hysan Concert Hall"],"source":"HOTOSM Hong Kong OSM export 2026-05-05","confidence":78},{"id":"hotosm-nodes-6346763625","name":"卵石徑","type":"attraction","address":"景點 / 文化設施","lat":22.451331,"lng":114.180583,"aliases":[],"source":"HOTOSM Hong Kong OSM export 2026-05-05","confidence":78},{"id":"hotosm-ways_poly-183028783","name":"君立酒店","type":"attraction","address":"3 Wang Kee Street","lat":22.323772,"lng":114.205757,"aliases":["君立酒店 Camlux Hotel","Camlux Hotel"],"source":"HOTOSM Hong Kong OSM export 2026-05-05","confidence":78},{"id":"hotosm-ways_poly-692966582","name":"君怡酒店","type":"attraction","address":"28 金巴利道 Kimberley Road","lat":22.300506,"lng":114.173828,"aliases":["君怡酒店 The Kimberley Hotel","The Kimberley Hotel"],"source":"HOTOSM Hong Kong OSM export 2026-05-05","confidence":78},{"id":"hotosm-nodes-3668151077","name":"君俊商務酒店","type":"attraction","address":"景點 / 文化設施","lat":22.276986,"lng":114.177079,"aliases":["JJ Hotel"],"source":"HOTOSM Hong Kong OSM export 2026-05-05","confidence":78},{"id":"hotosm-nodes-6329907299","name":"夾竹桃白腰天蛾","type":"attraction","address":"景點 / 文化設施","lat":22.450258,"lng":114.178778,"aliases":[],"source":"HOTOSM Hong Kong OSM export 2026-05-05","confidence":78},{"id":"hotosm-ways_poly-217522633","name":"宏基國際賓館","type":"attraction","address":"4 羅便臣道 Robinson Road","lat":22.278635,"lng":114.153391,"aliases":["宏基國際賓館 Bishop Lei International House","Bishop Lei International House"],"source":"HOTOSM Hong Kong OSM export 2026-05-05","confidence":78},{"id":"hotosm-nodes-4343320229","name":"宏福苑 Wang Fuk Court","type":"attraction","address":"景點 / 文化設施","lat":22.44671,"lng":114.174376,"aliases":["Wang Fuk Court"],"source":"HOTOSM Hong Kong OSM export 2026-05-05","confidence":78},{"id":"hotosm-nodes-3712152168","name":"巫氏古宅","type":"attraction","address":"景點 / 文化設施","lat":22.164961,"lng":114.258476,"aliases":["巫氏古宅 Mo's Old House","Mo's Old House"],"source":"HOTOSM Hong Kong OSM export 2026-05-05","confidence":78},{"id":"hotosm-nodes-11581824193","name":"希尔顿欢朋酒店","type":"attraction","address":"景點 / 文化設施","lat":22.545624,"lng":114.11848,"aliases":["Hampton"],"source":"HOTOSM Hong Kong OSM export 2026-05-05","confidence":78},{"id":"hotosm-nodes-10611789629","name":"希岸酒店","type":"attraction","address":"景點 / 文化設施","lat":22.537975,"lng":114.063741,"aliases":[],"source":"HOTOSM Hong Kong OSM export 2026-05-05","confidence":78},{"id":"hotosm-nodes-5342215631","name":"形狀奇趣的植物和昆蟲","type":"attraction","address":"景點 / 文化設施","lat":22.307681,"lng":114.038628,"aliases":["形狀奇趣的植物和昆蟲 Whimsical Collection of Plants & Insects","Whimsical Collection of Plants & Insects"],"source":"HOTOSM Hong Kong OSM export 2026-05-05","confidence":78},{"id":"hotosm-nodes-6000731285","name":"志明橋","type":"attraction","address":"景點 / 文化設施","lat":22.317273,"lng":114.213396,"aliases":["志明橋 Jimmy Bridge","Jimmy Bridge"],"source":"HOTOSM Hong Kong OSM export 2026-05-05","confidence":78},{"id":"hotosm-nodes-3294251872","name":"扶輪公園自然教育徑觀景台","type":"attraction","address":"景點 / 文化設施","lat":22.40156,"lng":114.109131,"aliases":["扶輪公園自然教育徑觀景台 Rotary Park Nature Trail Viewing Point","Rotary Park Nature Trail Viewing Point"],"source":"HOTOSM Hong Kong OSM export 2026-05-05","confidence":78},{"id":"hotosm-ways_poly-925422977","name":"扶輪公園燒烤地點","type":"attraction","address":"景點 / 文化設施","lat":22.404828,"lng":114.105733,"aliases":["扶輪公園燒烤地點 Rotary Club Garden Barbecue Areas","Rotary Club Garden Barbecue Areas"],"source":"HOTOSM Hong Kong OSM export 2026-05-05","confidence":78},{"id":"hotosm-ways_poly-925422976","name":"扶輪公園營地","type":"attraction","address":"景點 / 文化設施","lat":22.405035,"lng":114.105187,"aliases":["扶輪公園營地 Rotary Club Campsite","Rotary Club Campsite"],"source":"HOTOSM Hong Kong OSM export 2026-05-05","confidence":78},{"id":"hotosm-nodes-3164568473","name":"扶輪公園觀景台","type":"attraction","address":"景點 / 文化設施","lat":22.404106,"lng":114.105877,"aliases":["扶輪公園觀景台 Rotary Club Garden Viewing Point","Rotary Club Garden Viewing Point"],"source":"HOTOSM Hong Kong OSM export 2026-05-05","confidence":78},{"id":"hotosm-nodes-8742956918","name":"李小龍取景地","type":"attraction","address":"景點 / 文化設施","lat":22.229052,"lng":114.219077,"aliases":["Bruce Lee’s filming location"],"source":"HOTOSM Hong Kong OSM export 2026-05-05","confidence":78},{"id":"hotosm-nodes-4623637241","name":"李小龍銅像","type":"attraction","address":"Avenue of Stars, Tsim Sha Tsui","lat":22.295549,"lng":114.176396,"aliases":["李小龍銅像 Bruce Lee Statue","Bruce Lee Statue"],"source":"HOTOSM Hong Kong OSM export 2026-05-05","confidence":78},{"id":"hotosm-nodes-3233038503","name":"李兆基會議中心","type":"attraction","address":"景點 / 文化設施","lat":22.283379,"lng":114.134791,"aliases":["李兆基會議中心 Lee Shau Kee Lecture Centre","Lee Shau Kee Lecture Centre"],"source":"HOTOSM Hong Kong OSM export 2026-05-05","confidence":78},{"id":"hotosm-ways_poly-282206575","name":"李東海藝術中心","type":"attraction","address":"36 南朗山道 Nam Long Shan Road","lat":22.241911,"lng":114.167354,"aliases":["李東海藝術中心 Leo Lee Arts Centre","Leo Lee Arts Centre"],"source":"HOTOSM Hong Kong OSM export 2026-05-05","confidence":78},{"id":"hotosm-nodes-12750053890","name":"李福和朱美琳劇院","type":"attraction","address":"景點 / 文化設施","lat":22.417695,"lng":114.208266,"aliases":["李福和朱美琳劇院 Fook Wo and Laura Jee Li Theatre","Fook Wo and Laura Jee Li Theatre"],"source":"HOTOSM Hong Kong OSM export 2026-05-05","confidence":78},{"id":"hotosm-ways_poly-103426538","name":"李鄭屋漢墓博物館","type":"attraction","address":"41 東京街 Tonkin Street","lat":22.33801,"lng":114.16001,"aliases":["李鄭屋漢墓博物館 Lei Cheng Uk Han Tomb Museum","Lei Cheng Uk Han Tomb Museum"],"source":"HOTOSM Hong Kong OSM export 2026-05-05","confidence":78},{"id":"hotosm-nodes-7922003181","name":"沉球","type":"attraction","address":"景點 / 文化設施","lat":22.311908,"lng":114.222103,"aliases":["沉球 Cam4 Kau4","Cam4 Kau4"],"source":"HOTOSM Hong Kong OSM export 2026-05-05","confidence":78},{"id":"hotosm-ways_poly-92241271","name":"沖天搖擺船","type":"attraction","address":"景點 / 文化設施","lat":22.231659,"lng":114.171761,"aliases":["沖天搖擺船 Crazy Galleon","Crazy Galleon"],"source":"HOTOSM Hong Kong OSM export 2026-05-05","confidence":78},{"id":"hotosm-nodes-13543164356","name":"沖溝","type":"attraction","address":"景點 / 文化設施","lat":22.396529,"lng":113.996085,"aliases":["Gully"],"source":"HOTOSM Hong Kong OSM export 2026-05-05","confidence":78},{"id":"hotosm-nodes-12733007164","name":"沖溝","type":"attraction","address":"景點 / 文化設施","lat":22.400182,"lng":113.93774,"aliases":["Gully"],"source":"HOTOSM Hong Kong OSM export 2026-05-05","confidence":78},{"id":"hotosm-nodes-12733007165","name":"沖溝","type":"attraction","address":"景點 / 文化設施","lat":22.400654,"lng":113.93952,"aliases":["Gully"],"source":"HOTOSM Hong Kong OSM export 2026-05-05","confidence":78},{"id":"hotosm-nodes-12766067318","name":"沖溝","type":"attraction","address":"景點 / 文化設施","lat":22.392771,"lng":113.938551,"aliases":["Gully"],"source":"HOTOSM Hong Kong OSM export 2026-05-05","confidence":78},{"id":"hotosm-nodes-9520912118","name":"沖溝 Gully","type":"attraction","address":"景點 / 文化設施","lat":22.401355,"lng":113.922445,"aliases":[],"source":"HOTOSM Hong Kong OSM export 2026-05-05","confidence":78},{"id":"hotosm-nodes-1919829145","name":"沙田童軍中心","type":"attraction","address":"景點 / 文化設施","lat":22.370872,"lng":114.195776,"aliases":["沙田童軍中心 Shatin Scout Centre","Shatin Scout Centre"],"source":"HOTOSM Hong Kong OSM export 2026-05-05","confidence":78},{"id":"hotosm-nodes-6168215724","name":"沙頭角之角","type":"attraction","address":"景點 / 文化設施","lat":22.54367,"lng":114.226349,"aliases":["沙頭角之角 Cape of Sha Tau Kok","Cape of Sha Tau Kok"],"source":"HOTOSM Hong Kong OSM export 2026-05-05","confidence":78},{"id":"hotosm-nodes-11545811380","name":"沙頭角海旁","type":"attraction","address":"景點 / 文化設施","lat":22.544603,"lng":114.224299,"aliases":["沙頭角海旁 Starling Inlet","Starling Inlet"],"source":"HOTOSM Hong Kong OSM export 2026-05-05","confidence":78},{"id":"hotosm-nodes-4576601109","name":"沙螺灣大樟樹","type":"attraction","address":"景點 / 文化設施","lat":22.283792,"lng":113.903073,"aliases":["沙螺灣大樟樹 Sha Lo Wan Camphor Tree","Sha Lo Wan Camphor Tree"],"source":"HOTOSM Hong Kong OSM export 2026-05-05","confidence":78},{"id":"hotosm-nodes-8146644818","name":"良田坳大沖溝 Grand Gully","type":"attraction","address":"景點 / 文化設施","lat":22.412984,"lng":113.947769,"aliases":[],"source":"HOTOSM Hong Kong OSM export 2026-05-05","confidence":78},{"id":"hotosm-nodes-1727955511","name":"貝澳營地","type":"attraction","address":"景點 / 文化設施","lat":22.239606,"lng":113.977644,"aliases":["貝澳營地 Pui O Campsite","Pui O Campsite"],"source":"HOTOSM Hong Kong OSM export 2026-05-05","confidence":78},{"id":"hotosm-ways_poly-44417394","name":"貝澳營地","type":"attraction","address":"景點 / 文化設施","lat":22.238612,"lng":113.979322,"aliases":["貝澳營地 Pui O Camp Site","Pui O Camp Site"],"source":"HOTOSM Hong Kong OSM export 2026-05-05","confidence":78},{"id":"hotosm-nodes-3771294536","name":"赤柱","type":"attraction","address":"景點 / 文化設施","lat":22.218417,"lng":114.211487,"aliases":["Stanley"],"source":"HOTOSM Hong Kong OSM export 2026-05-05","confidence":78},{"id":"hotosm-nodes-1122164722","name":"赤柱市集","type":"attraction","address":"景點 / 文化設施","lat":22.218195,"lng":114.212515,"aliases":["赤柱市集 Stanley Market","Stanley Market"],"source":"HOTOSM Hong Kong OSM export 2026-05-05","confidence":78},{"id":"hotosm-ways_poly-234585219","name":"赤柱東方酒店","type":"attraction","address":"90B 赤柱大街 Stanley Main Street","lat":22.218786,"lng":114.211058,"aliases":["赤柱東方酒店 The Stanley Oriental Hotel","The Stanley Oriental Hotel"],"source":"HOTOSM Hong Kong OSM export 2026-05-05","confidence":78},{"id":"hotosm-nodes-3771315321","name":"赤柱海濱長廊","type":"attraction","address":"景點 / 文化設施","lat":22.217055,"lng":114.212396,"aliases":["Stanley Promenade"],"source":"HOTOSM Hong Kong OSM export 2026-05-05","confidence":78},{"id":"hotosm-nodes-3771294537","name":"赤柱海濱長廊模讀平面圖","type":"attraction","address":"景點 / 文化設施","lat":22.218344,"lng":114.211759,"aliases":["Braille and Tactile Floor Plan of Stanley Promenade"],"source":"HOTOSM Hong Kong OSM export 2026-05-05","confidence":78},{"id":"hotosm-nodes-4375519291","name":"阳光酒店","type":"attraction","address":"景點 / 文化設施","lat":22.542591,"lng":114.117735,"aliases":["Sunshine Hotel"],"source":"HOTOSM Hong Kong OSM export 2026-05-05","confidence":78},{"id":"hotosm-nodes-4436530920","name":"亞公角","type":"attraction","address":"景點 / 文化設施","lat":22.551157,"lng":114.206719,"aliases":[],"source":"HOTOSM Hong Kong OSM export 2026-05-05","confidence":78},